Nombre,Direccion,Localidad,Pais,Latitud,Longitud,OK
A AGRARIA COMERCIAL AGRICOLA,"C/CARRETERA DE LA ESTACIÓN, 25",CAMBRE,ESPAÑA,43.2926146,-8.3422786,SI
A AGRORURAL,"AV.DA ESTRADA REAL, 32",MILHARADO,PORTUGAL,38.93613209999999,-9.2003874,SI
A AVENDOA AGROTENDA (ANTES COM. SALORIO),"RUA INMACULADA, 22-24",PONTEDEUME (SANTIAGO),ESPAÑA,43.4075925,-8.170956799999999,SI
A CAMPIÑA DE LEMOS,"RUA PAZ NOVOA, S/N",MONFORTE,ESPAÑA,42.5240711,-7.5350734,SI
A CASA DA PINTORA,SUBIDA DOS MUIÑOS DO PICÓN S/N,O ROSAL,ESPAÑA,41.9565693,-8.8374083,SI
A CASA DA TORRE (AGRO ULLA),"TORRE, 55",CAMPAÑA VALGA,ESPAÑA,42.70237909999999,-8.663534,SI
A CASA DAS FLORES,"QUINTANS, 17",QUINTANS (ISORNA),ESPAÑA,42.6678333,-8.743684,SI
A CHORIMA,"C/. ORZAN, Nº6 BAJO",CORUÑA (A),ESPAÑA,43.3637626,-8.4103923,SI
A DELICIOSA CARNICERIA,"C/REDONDELA, Nº 10 - BAJO",PONTEAREAS,ESPAÑA,42.17052,-8.5023,SI
A FLORERIA,"JUAN VALVERDE, 3 - BAJO",SABARIS - BAYONA,ESPAÑA,42.1110317,-8.819543999999999,SI
A FLORERIA DE MARGARIDA,"C/. EMILIO PARDO BAZAN, 47",ALLARIZ,ESPAÑA,42.18946649999999,-7.800552199999999,SI
A GROWTA,"RUA SAUDE, 25",LUGO,ESPAÑA,43.0110159,-7.5703437,SI
A HORTA DE LINA,"PLAZA DE ABASTOS, 5",OURENSE,ESPAÑA,42.33541049999999,-7.8663202,SI
A HORTA DE MERCHE,"PLAZA DE ABASTOS DE GONDOMAR, PTO Nº3-4",GONDOMAR,ESPAÑA,42.1113297,-8.7632205,SI
A HORTA DE SANERO,"LUGAR DE VILAR, Nº36(AL LADO DEL MONASTERIO DE ARMENTEIRA)",ARMENTEIRA-MEIS,ESPAÑA,42.4633092,-8.741917899999999,SI
A LABRANZA (PONTEVEDRA),"JOAQUIN COSTA, 112",PONTEVEDRA,ESPAÑA,42.4267378,-8.6338928,SI
A LEIRA DE LOLA (GUILLERMO MARTÍN),"AVDA PABLO IGLESIAS, 56",NIGRAN,ESPAÑA,42.1637381,-8.8017402,SI
A LONXA DAS FLORES,"AVDA. FINISTERRE, 246",CORUÑA (A),ESPAÑA,43.3601269,-8.4179519,SI
A NOSA HORTA,"C/. MANUEL FERROL, 14 BAJO IZQ.",CARRAL (CARRAL),ESPAÑA,43.2268578,-8.3564658,SI
A NOSA PLANTA,CABANAS Nº29-A,SALCEDO,ESPAÑA,42.7347341,-2.9631835,SI
A RAXEIRA DO OUTEIRO,"AVDA. J.L. AZCARRAGA, Nº 24",AMES,ESPAÑA,42.8652092,-8.649020199999999,SI
A SEMENTEIRA (BETANZOS),RUA DOCTOR JOSE FARIÑA Nº6 BAJO,BETANZOS,ESPAÑA,43.2772617,-8.2114907,SI
A SEMENTEIRA (PORTO DO SON),"CARBALLOSA, S/N",PORTO DO SON,ESPAÑA,42.7242,-9.00349,SI
A TENDA DE ANA,"C/. LOURIDO, S/N",MEIRA,ESPAÑA,43.2139841,-7.2950106,SI
A TENDA DE DARIO,"O PENEDO, 45",ABEGONDO,ESPAÑA,43.2289164,-8.290689400000002,SI
A.MATO,"PLAZA DE ABASTOS, S/N",NOIA,ESPAÑA,42.78427569999999,-8.8882891,SI
ABABOLES FLORES Y PLANTAS,CALLE CARDENAL TAVERA 8,MADRID,ESPAÑA,40.495038,-3.6593215,SI
ABELLEIRA,"RUA EUSEBIO DA GUARDA, 14","CORUÑA, (A)",ESPAÑA,43.3559097,-8.4084221,SI
ABELLO ROIG JORDI,"CARRER MARE DE DEU DE LOURDES, 10",EL MASNOU,ESPAÑA,41.4786641,2.3161573,SI
"ABONOS, PIENSOS Y CEREALES PILAR ALONSO","C/VILLAGLORIA, Nº 5",VILLAMARTIN DE LA ABADIA,ESPAÑA,42.5671735,-6.7494307,SI
AC DOS SANTIAGO,PASEO DEL CLUB DEPORTIVO 1 E 17 PE - LA FINCA,POZUELO,ESPAÑA,40.4193227,-3.7999562,SI
ACHILEA,"AVDA. MEDITERRANEA, Nº30",BURRIANA,ESPAÑA,39.9229152,-0.0041212,SI
ACHILLEA FLOWERS,"RUA DA ROSA, Nº4",OURENSE,ESPAÑA,42.3400752,-7.8443849,SI
ACOTEC MODULAR SLU,"C/ A SEXTA PROVINCIA, 1º B",MONDARIZ (BALNEARIO),ESPAÑA,42.2257797,-8.4687819,SI
ADHOC,"C/ FENELON, 2A 4A",MADRID,ESPAÑA,40.4368631,-3.6126016,SI
ADRIA FLORERIA,"AVDA. OS ANXELES, 27",BRION,ESPAÑA,42.8539524,-8.6776918,SI
ADRIAN GONZALEZ LOPEZ,"PILAR SANTAMARIA, 24",TUDELA DE DUERO,ESPAÑA,41.5897115,-4.585393,SI
ADRIMAR,"C/. PADRE MENDEZ, 111 BAJO",TORRENT,ESPAÑA,39.4315725,-0.4708359999999999,SI
AECJ-ASOCIACION ESPAÑOLA DE CENTROS DE JARDINERIA,"CALLE LONDRES, 96 - pral. 2ª",BARCELONA,ESPAÑA,41.3936054,2.1513313,SI
AFLOR,"PLAZA DAS DAMAS, Nº1",OURENSE,ESPAÑA,42.3361511,-7.863359699999999,SI
AGICOLA A VIÑA,"CHAO DA VIÑA, Nº25",IRIXOA,ESPAÑA,43.3033537,-8.0782343,SI
AGRABO,C/. LUGAR FICHUA 18,ARBO,ESPAÑA,42.1106095,-8.3123062,SI
AGRARIO JOTAN,"FIGUEROA ARRIBA, 12",A ESTRADA,ESPAÑA,42.696677,-8.4987662,SI
AGRARIO JOTAN (NO USAR),"C/ LEICURES, 23","ESTRADA, (A)",ESPAÑA,42.69129119999999,-8.4854684,SI
AGRIBEN,"ESTRADA NACIONAL KM. 38,6 Nº118",BENAVENTE,PORTUGAL,38.8646725,-8.7921836,SI
AGRICENTRO,"C/VILLA VIEJA, S/N",TORDESILLAS,ESPAÑA,41.5042214,-5.0039094,SI
AGRICENTRO,"C/.DOCTOR PEREZ LISTA, 33",BARCO DE VALDEORRAS (O),ESPAÑA,42.4157139,-6.9838514,SI
AGRICENTRO ANDRES TATO,"AVDA.ELENA QUIROGA, Nº21-BAJO
VILLORIA",BARCO DE VALDEORRAS (O),ESPAÑA,42.41023999999999,-6.976806,SI
AGRICENTRO XINZO,"AVDA. MADRID, 100",XINZO DE LIMIA,ESPAÑA,42.0596056,-7.717887699999999,SI
AGRICOLA A SEMENTEIRA,"RUA GALICIA, 2 - BAIXO",SALVATERRA DO MIÑO,ESPAÑA,42.0830483,-8.4962948,SI
AGRICOLA ANSELMO,"C/. PONTEVEDRA, Nº20 BAIXO",SALCEDA DE CASELAS,ESPAÑA,42.1020723,-8.5567219,SI
AGRICOLA ARCADE,"AVDA.SOUTOMAIOR, Nº9-BAIXO",ARCADE,ESPAÑA,42.3407844,-8.6048713,SI
AGRICOLA AYNA,"BRETOÑA, 19 CURRO",BARRO,ESPAÑA,43.33817699999999,-7.318173499999999,SI
AGRICOLA CAAMAÑO SL,"REPUBLICA ARGENTINA, 18 BAJO",NOIA,ESPAÑA,42.7807653,-8.8848498,SI
AGRICOLA CORUTO,C/. CORUTO,GUARDA (A),ESPAÑA,40.46366700000001,-3.74922,SI
AGRICOLA DE CAAMAÑO (P.SON),"C/ CAAMAÑO, 21",PORTO DO SON,ESPAÑA,42.6594439,-9.0321263,SI
AGRICOLA DE SOUTELO,"CTRA. PONTEVEDRA-ORENSE, 58",SOUTELO DE MONTES,ESPAÑA,42.5378483,-8.304053699999999,SI
AGRICOLA DENA,"C/.ALTAMIRA, 12MEAÑO",DENA (SANTA EULALIA),ESPAÑA,42.448183,-8.810184,SI
AGRICOLA DIOR,"PONTELLON, 84ESCARABOTE",BOIRO,ESPAÑA,42.63223929999999,-8.908211399999999,SI
AGRICOLA EL HORREO,"C/.JUAN BAUTISTA ANDRADE, 128 BAJO",LEREZ,ESPAÑA,42.4451787,-8.6377921,SI
AGRICOLA FORESTAL VIVEROS MANTARAS,LUGAR DE MANTARAS Nº4,IRIXOA,ESPAÑA,43.2734154,-8.097594599999999,SI
AGRICOLA JORGE,CAMIÑO FOLGOSA DOS BOIX (SAN MARCOS) S/N,SANTIAGO DE COMPOSTELA,ESPAÑA,42.8958363,-8.5926753,SI
AGRICOLA LIMIANA,"C/RIO ARNOYA, 6",XINZO DE LIMIA,ESPAÑA,42.05993429999999,-7.7263109,SI
AGRICOLA LITO,"C/MIGUELDAVILA, 27",ARBO,ESPAÑA,42.1119687,-8.313548599999999,SI
AGRICOLA LOXO,"LOXO, S/N",TOURO,ESPAÑA,42.8583685,-8.3413583,SI
AGRICOLA MEAÑO,"CAMPO DA FEIRA, 2",MEAÑO,ESPAÑA,42.4441332,-8.781770100000001,SI
AGRICOLA MIERES,"CALVOS, 2",CUNTIS,ESPAÑA,42.6361947,-8.57193,SI
AGRICOLA MOURENTE,"CASAS NOVAS, 31",MOURENTE (SANTA MARIA),ESPAÑA,42.4406014,-8.6175283,SI
AGRICOLA MR.BARBARO,"CTRA.ARBO, 14","CAÑIZA, (A)",ESPAÑA,42.2127643,-8.2757457,SI
AGRICOLA MUIÑO VELLO,"C/CAMPOS, 19B","GROVE, (O)",ESPAÑA,43.3844457,-5.8232326,SI
AGRICOLA O AGRO,"C/DO MATADOIRO, 13 BAIXO","ESTRADA, (A)",ESPAÑA,42.6875306,-8.485658899999999,SI
AGRICOLA O CON,"C/ O'COM, 8 BAJO",O GROVE,ESPAÑA,42.4959962,-8.8651418,SI
AGRICOLA O CRUCEIRO,"LUGAR LA HERMIDA, 38MARCON","ERMIDA, (A)",ESPAÑA,42.4829481,-7.2502425,SI
AGRICOLA OUTES,AVDA. DEL ROCIO S/N,SERRA DE OUTES,ESPAÑA,42.8374838,-8.8995914,SI
AGRICOLA PRIETO,"AVDA. DO CRUCEIRO, 43",VILLALONGA,ESPAÑA,38.8860393,-0.2070885,SI
AGRICOLA PRIETO,"AVDA. DO CRUCEIRO, 43",VILLALONGA,ESPAÑA,38.8860393,-0.2070885,SI
AGRICOLA QUINTAS.,"C/.MEJUCO CORDIDO,14",MELIDE,ESPAÑA,42.9139507,-8.0146915,SI
AGRICOLA RAMIREZ,"DEVESA, 4ºA","BUDIÑO (PORRIÑO, O)",ESPAÑA,43.462173,-6.1700678,SI
AGRICOLA REIGOSA,"REIGOSA, 49",REIGOSA (TOURON),ESPAÑA,42.7336951,-7.251969,SI
AGRICOLA RODRIGUEZ,"FREIXEDO,39",PORTOSIN,ESPAÑA,42.7535823,-8.9486284,SI
AGRICOLA SAN PAIO,AS ANGUSTIAS (SANGUIÑEDA),MOS,ESPAÑA,42.1733548,-8.6294015,SI
AGRICOLA SEIXO,"AVENIDA DOCTOR OTERO ULLOA, 62 BAJO",MARIN,ESPAÑA,42.3914848,-8.7020824,SI
AGRICOR,"RUA DE MACAU, Nº12",CORUCHE,PORTUGAL,38.9630809,-8.5225028,SI
AGRIJARDIM,"ZONA INDUSTRIAL DE MIRAPOLO 1 LOTE, 39",AGUEDA,PORTUGAL,40.5762594,-8.449049,SI
AGRIVAL,"C/.CERVANTES, 28",RUA (A),ESPAÑA,39.5204908,-0.418003,SI
AGRO 4 ESTACIONES,"AVDA. DELANOVA, 7 A","VALENZA, BARBADAS (A)",ESPAÑA,42.3168221,-7.8836682,SI
AGRO A  LABRANZA (REDONDELA),"ESTRADA DE VIGO, 10 BAJO",REDONDELA,ESPAÑA,42.27903329999999,-8.6124222,SI
AGRO A GANDARA,"AVDA. NICASIO PEREZPARCELA 17, NAVE 6FERROL","GANDARA, (A)",ESPAÑA,43.4881668,-8.2049782,SI
AGRO A GRANXA NESPEREIRA,"ALVITE, 6PAZOS DE BORBEN",NESPEREIRA,ESPAÑA,42.2758748,-8.5273491,SI
AGRO A LAXE,"REPUBLICA ARGENTINA, 36-BAIXO",MARIN (CASCO URBANO),ESPAÑA,42.3914848,-8.7020824,SI
AGRO A NOSA TERRA,"LAVACOLLA, 41 B",SANTIAGO DE COMPOSTELA,ESPAÑA,42.8995,-8.442359999999999,SI
AGRO A PONTE,"C/. SAN PAYO, 3 BAJO",OURENSE,ESPAÑA,42.3499422,-7.8741943,SI
AGRO ABEGONDO,"LG A PENEDA, 1ºA - BAJO",ABEGONDO,ESPAÑA,43.2252071,-8.2909437,SI
AGRO ANTAS,"AVDA. LUGO, 48 - BAJO",ANTAS DE ULLA,ESPAÑA,42.7833227,-7.886581599999999,SI
AGRO ARDAN,CASAS 24-B,ARDAN - MARIN,ESPAÑA,42.3914848,-8.7020824,SI
AGRO ARENTEIRO,RUA MARCELINO PARRONDO Nº27-29 BAJO,CARBALLIÑO,ESPAÑA,42.4327569,-8.0780783,SI
AGRO ARENTEIRO,RUA MARCELINO PARRONDO 27-29 BAJO,CARBALLIÑO (O),ESPAÑA,42.4327427,-8.0783718,SI
AGRO AS DUNAS,IÑEIRAS 69- SIRVES OLVEIRA,RIBEIRA (SANTA UXIA),ESPAÑA,42.5917113,-9.0362612,SI
AGRO BARRO,"RUA BALADAS, 3 - BAIXO",BARRO,ESPAÑA,42.52463849999999,-8.6393282,SI
AGRO BECERREA,"ANOVELLO, 22",BECERREA,ESPAÑA,42.8496455,-7.160990699999999,SI
AGRO BIONA CELANOVA,"CASTOR ELICES, 30 - BAJO",CELANOVA,ESPAÑA,42.1536346,-7.9554178,SI
AGRO BORA,"C/.BARRO, 8COTOBADE",TENORIO,ESPAÑA,42.21893,-8.493126199999999,SI
AGRO BUEU,"C/.RAMON BARES, 40 BAJO",BUEU,ESPAÑA,42.3226035,-8.7864366,SI
AGRO CAMPO VEIGA,"CTRA.PEINADOR-OS VALOS, 152GUIZAN",MOS,ESPAÑA,42.228265,-8.6125978,SI
AGRO CARBALLEDO,"AVDA. OURENSE, 28","BARRELA, (LA)",ESPAÑA,42.6083747,-7.7727724,SI
AGRO CARREIRA,CASAL DA VELHA ESTRADA MUNICIPAL ENTRE CHA DE BAIXO E SANTOS Nº 583,TREMES-SANTAREM,PORTUGAL,39.5909829,-8.5116938,SI
AGRO CARRIL,"C/.ROSALIA DE CASTRO, 112 BAJO 4-CARRIL",VILAGARCIA DE AROUSA,ESPAÑA,42.6100986,-8.7694712,SI
AGRO CASTELAO,"RUA DOS IRMANS LISTE FORJAN, 14 BAJOAMENEIRO-CALO",TEO,ESPAÑA,42.8238669,-8.594875,SI
AGRO CASTIÑEIRAS,"CAMPEIRAS, 1",ORDES,ESPAÑA,43.0756478,-8.4112558,SI
AGRO CHEDAS,"VIA EDISON, 36",POLIGONO DO TAMBRE,ESPAÑA,42.9142551,-8.5192748,SI
AGRO CONDADO,"ANTONIO TOBAR, 38",ARBO,ESPAÑA,42.1122909,-8.3103344,SI
AGRO CONDE ADINA,"C/. ADINA IGLESIA, 18",PORTONOVO,ESPAÑA,42.4081677,-8.8329002,SI
AGRO CORTEGADA,C/.ALFEREZ RIVERA VISO Nº8 BAIXO,CORTEGADA,ESPAÑA,42.2068921,-8.1720675,SI
AGRO CORTEGADA,C/.ALFEREZ RIVERA VISO Nº8 BAIXO,CORTEGADA,ESPAÑA,42.2068921,-8.1720675,SI
AGRO CURRO,"LG. BRETOÑA, 19 (CURRO)",BARRO,ESPAÑA,43.33817699999999,-7.318173499999999,SI
AGRO CURRO (NO USAR),"LG. BRETOÑA, 19 (CURRO)",BARRO,ESPAÑA,43.33817699999999,-7.318173499999999,SI
AGRO DA MO,"ESTRADA DA MO, 10 - NOVAS",O ROSAL,ESPAÑA,41.9428306,-8.847046899999999,SI
AGRO DOMINGOS,RUA DR EDUARDO F. DE ALMEIDA Nº36,GLORIA DO RIBATEJO,PORTUGAL,39.0324461,-8.6270628,SI
AGRO ESTEVEZ,"C/ASTURESES, 19 BAJO","CARBALLIÑO, (O)",ESPAÑA,42.4302161,-8.081707399999999,SI
AGRO FERMA,"TRAVESIA DO SIXTO,89SANTIAGO",MARROZOS (SANTA MARIA),ESPAÑA,42.8379744,-8.4961975,SI
AGRO FERNANDEZ,"CASAL, 8",TEBRA (SAN SALVADOR),ESPAÑA,42.0422526,-8.7394762,SI
AGRO FERRALVE,"MONTEMOGOS, 154B BELUSO",BUEU,ESPAÑA,42.3264113,-8.8083727,SI
AGRO FERROL,"POLIG. DE LA GANDARA, PARCELA 33-A",O FERROL,ESPAÑA,43.5346521,-7.927948100000001,SI
AGRO FON,CAMIÑO DA FONTE Nº4 CUÑEIRA DE ARRIBA,ROSAL (O),ESPAÑA,41.9254107,-8.836426,SI
AGRO HERMIDA,"ALMOZARA, 34",BOBORAS,ESPAÑA,42.4324151,-8.1427319,SI
AGRO LOPEZ MONFORTE,"C/. CHANTADA, 106 BAJO",MONFORTE DE LEMOS (CASCO URBANO),ESPAÑA,42.5242581,-7.522225799999998,SI
AGRO MACEDA,RUA CATRO CAMIÑOS 1ºA,MACEDA,ESPAÑA,42.268791,-7.6520984,SI
AGRO MANOLO,"CASTELAO,22",BUEU (CASCO URBANO),ESPAÑA,42.4031087,-8.8120397,SI
AGRO MARCELINO,"AVDA. DE BARRAÑA, 3 BAJO",BOIRO,ESPAÑA,42.6452602,-8.883164899999999,SI
AGRO MAROÑA,"A BRAÑA, Nº28MAROÑAS",MAZARICOS,ESPAÑA,42.9667797,-8.9072216,SI
AGRO MEDER,CTRA. PONTEAREAS-AS NEVESSALVATIERRA,MEDER,ESPAÑA,42.0851203,-8.5009313,SI
AGRO MIGUEL ESTEVEZ,PLAZA DE MERCADO 1º BAJO,ARBO,ESPAÑA,42.1111842,-8.3124565,SI
AGRO MO,"ESTRADA DA MO, 10NOVAS","ROSAL, (O)",ESPAÑA,41.9430774,-8.8475001,SI
AGRO NANDEZ,"RUA MON Y LANDA, 6",CRECENTE,ESPAÑA,42.1522557,-8.223503899999999,SI
AGRO NIETO,AVDA. CELANOVA B-116,"VALENZA, (A)",ESPAÑA,42.3117021,-7.8867847,SI
AGRO O CANUDO,AVDA.ESTACION Nº15 (NAVE 3),REDONDELA,ESPAÑA,42.2818519,-8.609170299999999,SI
AGRO O EIDO,"EIDOS,4",REDONDELA,ESPAÑA,42.2833439,-8.6066544,SI
AGRO P.B.,"RUA FONTE PEDREIRA, 42",SERRELEIS,PORTUGAL,41.7054389,-8.7496201,SI
AGRO PANCHO,"A XESTEIRA, 1CASTRELO",CAMBADOS,ESPAÑA,42.52388819999999,-8.795283,SI
AGRO PARADANTA,"C/.VILANOVA, Nº9",CAÑIZA (A),ESPAÑA,42.2113511,-8.270087,SI
AGRO PARAÑOS,"PORTO CORTIÑAS, 3 (N-120)",PARAÑOS (COVELO),ESPAÑA,42.2116298,-8.352084399999999,SI
AGRO PATATEIRO,"RUA MUÑOZ CALERO, 30",RIBADAVIA,ESPAÑA,42.2985027,-8.1370677,SI
AGRO PORTONOVO,"CTRA. DA LANZADA, Nº62",PORTONOVO,ESPAÑA,42.3952605,-8.829191,SI
AGRO POSE VETERINARIA,"CIMADEVILA, 40",BOIRO,ESPAÑA,42.6529452,-8.879302,SI
AGRO POUSA,"AVDA.LUDEIRO, 13 - PUXEIROS",MOS,ESPAÑA,42.2048806,-8.658040699999999,SI
AGRO POUSA (AS NEVES),"A POUSA, 9SETADOS",AS NEVES,ESPAÑA,42.1537426,-8.411055,SI
AGRO REDONDELA,"C/ JOSE REGOJO, 18",REDONDELA,ESPAÑA,42.2810339,-8.6102211,SI
AGRO RIBADAVIA,"CTRA. DE FRANCELOS, 20",RIBADAVIA,ESPAÑA,42.2836048,-8.1472832,SI
AGRO RIBEIRA SACRA,"RUA DO DEPORTE, 4º BAIXO",MACEDA,ESPAÑA,42.2706384,-7.6526189,SI
AGRO ROBERTO,"PLAZA BARCELOS, 10 - BAJO DERECHA",PONTEVEDRA,ESPAÑA,42.4307331,-8.639806600000002,SI
AGRO SALCEDA,"C/. CORUÑA, Nº2 BAJO",SALCEDA,ESPAÑA,42.1024515,-8.5604573,SI
AGRO SAN MAMEDE,"AVENIDA DOS MILAGROS, 20",MACEDA,ESPAÑA,42.267135,-7.6496613,SI
AGRO SAN MARTIÑO,"ABELENDO,17A",MOAÑA,ESPAÑA,42.2837592,-8.7436077,SI
AGRO SAN ROQUE,"C/.FILGUEIRAS, Nº5",XEVE,ESPAÑA,42.4631018,-8.587250899999999,SI
AGRO SAVOY,"PLAZA A PEDREIRA, 1","LAMA, (A)",ESPAÑA,42.39695649999999,-8.4420713,SI
AGRO VIDAL,"C/ RIO MENTE, 8 3ºC",VERIN,ESPAÑA,41.9317097,-7.437275400000001,SI
AGRO VILLA,"C/. REZA, 12 (GALERIAS ROMA)",OURENSE,ESPAÑA,42.3381245,-7.8666303,SI
AGRO VISTA REAL,"VISTA REAL, 39 (CORON)",VILAGARCIA DE AROUSA,ESPAÑA,42.5961591,-8.7670022,SI
AGRO XESTEIRIÑA,"LUGAR DE VILAR, 24-VILLALONGA",SANXENXO,ESPAÑA,42.4432749,-8.8422559,SI
AGRO XINZO-SOAGA,PARQUE EMP.VILANOVAVIAL B-MANZANA 4  PARC.1,BAION-VILANOVA DE AROUSA,ESPAÑA,42.5607887,-8.726610599999999,SI
AGRO-FER,"RUA CRUCEIRO CORUÑA, 6",SANTIAGO DE COMPOSTELA,ESPAÑA,42.8924472,-8.532406000000002,SI
AGRO-XARDIN,"LG.A PICARAÑA, 3","PRADON (ESCRAVITUDE, A)",ESPAÑA,42.7833463,-8.6498442,SI
AGROACUÑA,SAN CIPRIAN,NEVES (AS),ESPAÑA,42.1070112,-8.3860947,SI
AGROALMACENES ELIAS,"AVDA.SAN ROSENDO, 3",CELANOVA,ESPAÑA,42.1540759,-7.954400099999999,SI
AGROASTUR,"AVDA.DE GALICIA, 8",VEGADEO,ESPAÑA,43.3601568,-7.109196799999999,SI
AGROBOTICA FRIOL,"C/. ROSALIA DE CASTRO, 9",FRIOL,ESPAÑA,43.0317028,-7.794195299999999,SI
AGROBOTICA ORDES,"RUA RECREO, 4 BAIXO",ORDES,ESPAÑA,43.0764967,-8.4098449,SI
AGROBOTICA SANTIAGO.,"CRUCEIRO DA CORUÑA, 22-BAJO",SANTIAGO,ESPAÑA,42.8935213,-8.5320441,SI
AGROBUSTOS,RUA SOBREIRO 125 R/C DIREITO SOBREIROBUSTOS,BUSTOS,PORTUGAL,40.5104536,-8.595946,SI
AGROCAMPO UNION  (BARRO),"C/. BOUZA DO REI, 3 BAJO",BARRO,ESPAÑA,42.5334368,-8.7655262,SI
AGROCAN,"AVDA. SANTIAGO, 102 BAJO DCHA.",OURENSE,ESPAÑA,42.3559043,-7.865145200000001,SI
AGROCAR,"MARGARITA TABOADA,10","CARBALLIÑO, (O)",ESPAÑA,42.4298322,-8.0792179,SI
AGROCAROU,"LG.SAN ORENTE, 1",SIERRA DE OUTES,ESPAÑA,42.8634144,-8.902360999999999,SI
AGROCENTRO TURIEL,"CARRETERA RABANALES, 6",ALCAÑICES,ESPAÑA,41.7004379,-6.3437001,SI
AGROCHAN,"A CHAN, 22 CERDEDO",COTOBADE,ESPAÑA,42.4729886,-8.4470419,SI
AGROCHAN,"A CHAN, 22 CERDEDO",COTOBADE,ESPAÑA,42.4729886,-8.4470419,SI
AGROCHANTADA,"C/. HERMANOS TABOADA, Nº14",CHANTADA,ESPAÑA,42.6074013,-7.7669563,SI
AGROCOMERCIAL ABELLEIRA,"A ABELLEIRA, 1 - MARIZ",GUITIRIZ,ESPAÑA,43.1463712,-7.934734199999999,SI
AGROCOUSAS,"C/.PEÑA TREVINCA, 36 BAIXO",OURENSE,ESPAÑA,42.3319471,-7.8618649,SI
AGROCOUSAS ORDES,RUA NOVA 56-58 BAIXO,ORDES,ESPAÑA,43.0761608,-8.4065648,SI
AGROCURRELOS,CURRELOS Nº6B,SAVIÑAO,ESPAÑA,42.6786045,-7.647351499999999,SI
AGRODEPA,"C/FRANCIA, 49 A",PALENCIA,ESPAÑA,42.0038042,-4.5106448,SI
AGRODICAM,"CAMINO REAL, 1",ABADIN,ESPAÑA,43.3690899,-7.467241399999999,SI
AGROFANDI,"LAZARETO-TIRAN, 161 MOAÑA",TIRAN (SAN XOAN),ESPAÑA,42.2692478,-8.752949899999999,SI
AGROFOR,"LG. ABELLAS, 21 MUIÑO",ZAS,ESPAÑA,43.0272512,-8.949029999999999,SI
AGROFORESTAL DA TAPIA,"AVENIDA DE RAZO, 28 - BAJO",CARBALLO,ESPAÑA,43.2230205,-8.691940599999999,SI
AGROFORESTAL LUCKY SL,BARRIO SAN BENITO Nº 12,TOMIÑO,ESPAÑA,41.9924192,-8.7424885,SI
AGROFORTALEZA,"ROSALIA DE CASTRO, 67 BAJO",CASTROVERDE,ESPAÑA,43.0302594,-7.326425100000001,SI
AGROGAR,AV SOUTO VIZOSO Nº 2 BAIXO - SANTALLA,VALDOVIÑO,ESPAÑA,43.6074958,-8.1426202,SI
AGROGARGALLO COMERCIAL GANDEIRA,"AVDA. LUIS GONZALEZ TABOADA, Nº34 5ºB",LALIN (CASCO URBANO),ESPAÑA,42.6597974,-8.1113827,SI
AGROGON,C/.MANUEL ALONSO Nº13 BAJO,GONDOMAR,ESPAÑA,42.1122939,-8.7606484,SI
AGROGRANDE S.L.,C/DE LA IGLESIA S/NCALEIRO,VILANOVA DE AROUSA,ESPAÑA,42.5627589,-8.8274228,SI
AGROIKOS,"RUA CHORENTE, 20",RIANXO,ESPAÑA,42.6764819,-8.822313,SI
AGROJARDIN,"CTRA. DE MADRID, KM 234 (O PIÑEIRAL)",SAN CIBRAO DAS VIÑAS,ESPAÑA,42.2948445,-7.872840300000001,SI
AGROJARDIN GREDOS,"CARRETERA DE CANDELEDA, 15",ARENAS DE SAN PEDRO,ESPAÑA,40.2076835,-5.0945825,SI
AGROJARDIN SOLLOSO,ESTDA.CASTELA N.98,VISTA ALEGRE (DOSO-NARON),ESPAÑA,43.5194434,-8.093461099999999,SI
AGROLEON,"AVD. SAN IGNACIO DE LOYOLA, 70 - BAJO",LEON,ESPAÑA,42.6075862,-5.593072200000001,SI
AGROLONIA,"RUA ALFONSO RODRIGUEZ CASTELAO, 52",OURENSE,ESPAÑA,42.3474521,-7.8539618,SI
AGROMARC,"C/VENEZUELA, Nº9 - BAJO",NOIA,ESPAÑA,42.78427569999999,-8.8882891,SI
AGROMENS,"AVDA. DE BÉRTOA, 9",CARBALLO,ESPAÑA,43.2225453,-8.683816799999999,SI
AGROMIÑO 1,CTRA. FORXA Nº21,OURENSE,ESPAÑA,42.4708896,-8.2770531,SI
AGROMIÑO 2,PORTA DO PRADO S/N,SANTA CRUZ DE ARRABALDO,ESPAÑA,42.343667,-7.9802933,SI
AGROMIÑOR,"CAMIÑO DAS BARREIRAS, Nº6","RAMALLOSA (SAN PEDRO),A",ESPAÑA,42.1212109,-8.8110879,SI
AGROMONDOÑEDO,"AVDA.AS SAN LUCAS, 21-BAJO",MONDOÑEDO,ESPAÑA,43.4284883,-7.3673113,SI
AGRONATURA,"AVDA. CERVERA, 61",ALCAZAR DE SAN JUAN,ESPAÑA,39.3852085,-3.2077979,SI
AGRONATURA SILLEDA,"C/. PROGRESO, 25",SILLEDA,ESPAÑA,42.7020616,-8.2445422,SI
AGRONERGA,"CTRA. PLAYA 137, NERGA - CANGAS",HIO (RESTO PARROQUIA),ESPAÑA,42.2711025,-8.830117699999999,SI
AGRONOVO ROIS,"LG. DE SAMIL, S/N",ANTEQUEIRA,ESPAÑA,42.7604068,-8.688430199999999,SI
AGROPAISAJE,"C/VALLADOLID, 45 - POL.IND.DE BOCEGUILLAS",BOCEGUILLAS,ESPAÑA,41.3459271,-3.6381916,SI
AGROPECUARIA AS AIRAS,"C/AS AIRAS, 24",BERTOA - CARBALLO,ESPAÑA,43.2302668,-8.6603706,SI
AGROPECUARIA FERVENZA,"AVENIDA SANTIAGO, 166",OURENSE,ESPAÑA,42.3603373,-7.865645699999999,SI
AGROPECUARIA MAESTU,NAVES GROMBER Nº 64 POL.IND.VILLA GONZALO,VILLAGONZALO PEDERNALES,ESPAÑA,42.2917158,-3.7068523,SI
AGROPECUARIA Mª BEATRIZ,"C/ PEÑA TREVINCA, 17 - BAJO",OURENSE,ESPAÑA,42.3347101,-7.8608901,SI
AGROPECUARIA NELA,"AVDA FINISTERRE, S/N",CORISTANCO,ESPAÑA,43.1878542,-8.7362025,SI
AGROPECUARIA O LABREGO,AVENIDA MENDIÑO 44,REDONDELA,ESPAÑA,42.2898259,-8.611962,SI
AGROPESCA RAFA,"QUEIRIS, Nº63",COIROS,ESPAÑA,43.2670142,-8.185681,SI
AGROPINO,"CTRA. DE VIGO, 51 BAJO",OURENSE,ESPAÑA,42.3205812,-7.880245,SI
AGROPLANTA,AVDA. DE MONELOS 241 BAJO A,CORUÑA (A),ESPAÑA,43.3415726,-8.396167799999999,SI
AGROPORTUGAL,EN 229-CRUZAMENTO DE SEQUEIROS,AGUILAR DA BEIRA,PORTUGAL,40.8499973,-7.5139322,SI
AGROPUENTE,"AVDA. DE PORTUGAL,  Nº 18",TUI,ESPAÑA,42.0423733,-8.6475887,SI
AGROSERAN,CALLE REAL Nº93,PONTEAREAS,ESPAÑA,42.1756174,-8.5064757,SI
AGROSHOP (CACERES),"POLIGONO LAS LAGUINILLAS NAVES, 2 Y 4",CORIA,ESPAÑA,39.9845274,-6.5243783,SI
AGROSHOP ORTIGUEIRA,C/LA PENELA 17 BAJO,ORTIGUEIRA,ESPAÑA,43.7302443,-7.7558156,SI
AGROSHOP.,MARIA AUXILIADORA 71-85 (EL CORTE INGLES) SOTANO 1 (FLORISTERI),SALAMANCA,ESPAÑA,40.9738835,-5.6573195,SI
AGROSIL INGENIERIA,"C/. ROSALIA DE CASTRO, Nº5",QUIROGA,ESPAÑA,42.4759369,-7.2749337,SI
AGROSILVA 2010,"RUA CORUÑA,21",CERCEDA,ESPAÑA,43.1585209,-8.560425900000002,SI
AGROSONEIRA,"REPARADA, 8",VIMIANZO,ESPAÑA,43.138941,-8.9980443,SI
AGROSURU,RUA DO CACERES 1º DT Nº19,ARRUDA DOS VINHOS,PORTUGAL,38.9829298,-9.0776401,SI
AGROTECNIA,"AVDA. DE LA CORUÑA, 302",LUGO,ESPAÑA,43.0251664,-7.5667803,SI
AGROTENDA,"DR.MARTINEZ PARDO, 59 BAJO",TEIXEIRO,ESPAÑA,43.1381003,-8.035815,SI
AGROTENDA DE MARTIN,"LUGAR DE BURGANS, 91",VILARIÑO (CAMBADOS),ESPAÑA,42.5162775,-8.8010141,SI
AGROTENDA O LABREGO,"O ENXERTADO, 55",OZA-CESURAS,ESPAÑA,43.2068465,-8.1815407,SI
AGROTENDA P.BLANCO,"AVDA MALPICA, 101",CARBALLO,ESPAÑA,43.2200713,-8.702953599999999,SI
AGROTIENDA FONSAGRADA,"AVDA. GALICIA, 48",FONSAGRADA,ESPAÑA,43.1250177,-7.0702696,SI
AGROTUSSET,"AVDA. BERGANTIÑOS, 2ªA - PAIOSACO","LARACHA, (A)",ESPAÑA,43.2556258,-8.5605039,SI
AGROVEIGA,"C/ OURENSE, 295",MONFORTE DE LEMOS (CASCO URBANO),ESPAÑA,42.5167084,-7.5306348,SI
AGROVETERIS CB,"AVDA. OURENSE, 5 - BAJO",CHANTADA (CASCO URBANO),ESPAÑA,42.6094472,-7.771765599999999,SI
AGROYFORES,"BAJA, 3-ARCOS DA CONDESA",CALDAS DE REIS,ESPAÑA,42.57727819999999,-8.6396749,SI
AGRUBEN,AVD GALICIA 44 BAJO A FONSAGRADA,A FONSAGRADA,ESPAÑA,43.1251618,-7.070362599999999,SI
AINARA REGUERA,"AVDA. XOSE SOLLA, 61 2ºD",ARCADE,ESPAÑA,42.3396858,-8.6056186,SI
AINTZANE LORADENDA,"ERREMEDIO, 34",BERMEIO,ESPAÑA,43.4198162,-2.7245583,SI
AIPROYECTOS,"C/.EZCURDIA, 68 BAJO",GIJON,ESPAÑA,43.53958859999999,-5.6533224,SI
AIRES DA TERRA,"CAMPAÑO SOUTONOVO, Nº22",CAMPAÑO (SAN PEDRO),ESPAÑA,42.4798006,-8.6631526,SI
AIRES FARELO,"RUA DAS MIMOSAS LOTE, 493COVAS DE COINA",SETUBAL,PORTUGAL,38.585967,-9.0226021,SI
AJUNTAMENT D ARGENTONA,"C/. GRAN, 59",ARGENTONA,ESPAÑA,41.5553852,2.400186,SI
AJUNTAMENT DE VILANOVA DEL CAMÍ,"PL. CASTELL, 1",VILANOVA DEL CAMI,ESPAÑA,41.5722616,1.6341713,SI
ALANDI GARDENS,"C/.CRTA AMBITE, 4",TIELMES DE TAJUÑA,ESPAÑA,40.3289056,-3.2205273,SI
ALBA UCHA,"RUA CASTAÑAL, 10 - E   LOCAL COMERCIAL 0003",PONTEAREAS,ESPAÑA,42.1744786,-8.5013358,SI
ALBERTO REBANAL,C/ O DE MARZO Nº33,REDONDELA,ESPAÑA,42.2818519,-8.609170299999999,SI
ALCOMTE GALICIA,"LUGAR SANTAN MARIA DE GRIXOA, 12",SANTIAGO DE COMPOSTELA,ESPAÑA,42.8768606,-8.5441729,SI
ALDANSA,C/. VELAZQUEZ Nº100,MADRID,ESPAÑA,40.4336243,-3.6834338,SI
ALDEIARRUMADA,"ENT13, EDIFICIO AJN Nº27  E29 1G",V.N DE CERVEIRA,PORTUGAL,41.9383326,-8.744077299999999,SI
ALEA FLORES (NO USAR),"RUA BARCELONA, 83-BAJO",VIGO,ESPAÑA,42.2227032,-8.7284395,SI
ALEA FLOWERS,"RUA BARCELONA, 83-BAJO",VIGO,ESPAÑA,42.2227032,-8.7284395,SI
ALECRIN ARTE FLORAL,"C/.ARRIBAS, Nº1",LOUSAME,ESPAÑA,42.726718,-8.8095762,SI
ALECRIN TOURO,"ISABEL II, 21",TOURO,ESPAÑA,42.8673326,-8.306828099999999,SI
ALEJANDRO,"RUA DO PROGRESO, 16 PLAZA DE ABASTOS",RIBADAVIA,ESPAÑA,42.2881041,-8.144618699999999,SI
ALETH'S GARDEN,"C/. SANT JORDI, 8, 2º",SANT VICENÇ DE CASTELLET,ESPAÑA,41.6702665,1.8590321,SI
ALEX,"AVDA.REPUBLICA ARGENTINA, 19 - 3B",TOMIÑO,ESPAÑA,41.9906358,-8.7399047,SI
ALEXANDRINA E LINO,"RUA DE ALDEIA, 152",AGUÇADORA,PORTUGAL,41.4279355,-8.7794753,SI
ALEXPLANT,"MIGUEL DE CERVANTES, Nº3",VILLAMARTIN DE VALDEORRAS,ESPAÑA,42.4143121,-7.0605779,SI
ALFA GARDEN CENTER-QUINTA DA ATABOEIRA,"EN125, KM. 69,8 QUINTA DA ATABOEIRA-CENTRO JARDINAGEM",FERREIRAS,PORTUGAL,37.1285431,-8.2703066,SI
ALFABIA NATURA,"CAMÍ DE SON BINISSALOM, S/NAPDO.CORREOS, Nº55SANT JORDI",PALMA DE MALLORCA,ESPAÑA,39.5575006,2.7847839,SI
ALFARERIA ALTO DO COUSO (HERMESINDO),"ALTO DO COUSO, S/N",ESGOS,ESPAÑA,42.3122348,-7.675498200000001,SI
ALFARERIA AMG,CARRETERA FUENMAYOR Nº 3,NAVARRETE,ESPAÑA,42.4308342,-2.5658647,SI
ALFONSO ACUÑA DISTRIBUCIONES,"PONTENOVA, Nº25",GUILLAREI,ESPAÑA,42.1547451,-8.6216753,SI
ALFONSO JARES,"CATALUÑA, 7",VIGO,ESPAÑA,42.2317837,-8.7042138,SI
ALFREDO MOREIRA DA SILVA & FS. LDA,"RUA DOS AFONSOS, Nº30",OPORTO,PORTUGAL,41.1871611,-8.5397488,SI
ALFREDO REGUEIRA,"C/MARCELINO ENRIQUEZ PARRONDO,27-29",CARBALLIÑO,ESPAÑA,42.4327427,-8.0783718,SI
ALIMENTACION MARNI,"CERQUEIRO, Nº 3 - BALDRANES",TUI,ESPAÑA,42.0593356,-8.5801056,SI
ALIMENTACION TOMAS,"MIÑOTEIRA, 17-VALEIXE",CAÑIZA (A),ESPAÑA,42.169725,-8.27395,SI
ALISMA,"C/. FERNANDO MORAN,16",AVILES,ESPAÑA,43.5555052,-5.9319343,SI
ALIUM TAPERIA,"RUA ECUADOR, 80",VIGO,ESPAÑA,42.2317571,-8.7158254,SI
ALLEGRAPLANT,"AV. MADRID, Nº49",ALCALA DE HENARES,ESPAÑA,40.4757807,-3.395366,SI
ALMA RURAL,"AVDA DE CAMOES, 3-1ºANDAR",CAMINHA,PORTUGAL,41.8747824,-8.8330101,SI
"ALMACENES A LIMIA, SL","POLIGONO A PASAXE, 10 NAVE 3 (VINCIOS)",GONDOMAR,ESPAÑA,42.1550083,-8.7205654,SI
ALMACENES AGRO,"C/VERDDILLO, 16",CARBALLO,ESPAÑA,43.2081092,-8.686340699999999,SI
ALMACENES BABARRO,"RIO ARNOIA, 24 BAJO",OURENSE,ESPAÑA,42.0591142,-7.7242591,SI
ALMACENES BALONGA/FORRAXES LUGO,"RUA ROSALIA DE CASTRO, 100",CASTROVERDE,ESPAÑA,43.0299967,-7.3255181,SI
ALMACENES CESTEIRO,"AVENIDA DE CEA,16","BARRELA, (LA)",ESPAÑA,42.54008169999999,-7.8156026,SI
ALMACENES FACORRO,"CAMPO RAPADO, 20
BOQUEIXON",CAMPORRAPADO,ESPAÑA,42.8017991,-8.3621777,SI
ALMACENES IBERIA CENTRO AGRICOLA,"EL PUERTO, S/N",BETANZOS,ESPAÑA,43.2784298,-8.213123399999999,SI
ALMACENES LITO (OIA),"CAMIÑO DO AGUNCHEIRO, 10OIA",MOUGAS,ESPAÑA,42.0519226,-8.886243799999999,SI
ALMACENES LOS ROJONES,"AV. ASTURIAS, 107",PONFERRADA,ESPAÑA,42.563095,-6.6047555,SI
ALMACENES POTE,"C/SIL, 27 - VILOIRO","BARCO, (O)",ESPAÑA,42.70558244325262,-6.915119838295905,SI
ALMACENES REY DIEZ,"RUA DA FEIRA, 11",A PONTENOVA,ESPAÑA,43.3455122,-7.197719800000001,SI
ALMACENES RIVERA,"AVDA CALDAS, 17",PUENTE,ESPAÑA,42.3475566,-7.869545399999999,SI
ALMACENES RIVERA (BOVEDA),"AV ALFONSO  XIII, 96",BOVEDA,ESPAÑA,42.6248709,-7.4830018,SI
ALMACENES RIVERA (NO USAR),"AV ALFONSO  XII, 96",BOVEDA,ESPAÑA,42.6248709,-7.4830018,SI
ALMACENES SEÑARIS SL,"CHONIA, 4XAVESTRE",TRAZO (STA MARIA),ESPAÑA,42.9906467,-8.550128299999999,SI
ALMACENES VIDAL,"CRUZ DA PEDRA-A ATALAYA,18","POBRA DO CARAMIÑAL, (A)",ESPAÑA,42.6081389,-8.942219099999999,SI
ALMACENS AGROCURTIS,"C/. ALCALDE ESPIÑEIRA, 25 BAIXO",CURTIS,ESPAÑA,43.1222418,-8.1435614,SI
ALMACENS CELSO,"RUA DA AUTOVIA, 40 TAMEIGA",MOS,ESPAÑA,42.1964088,-8.6533565,SI
ALMACENS ELADIO SA,"RUA CASTELAO, 27",PADRON,ESPAÑA,42.7371538,-8.661284199999999,SI
ALMARGEM DECOR,"SITIO DO ALMARGEM, CP 290-Z, EN 125TAVIRA",FARO,PORTUGAL,37.10834639999999,-7.6718155,SI
ALOE,"C/. BURBIA, Nº40(BARRIO DE PINILLA)",SAN ANDRES DEL RABANEDO,ESPAÑA,42.6045908,-5.5947404,SI
ALPE COMERCIAL (COMBARRO),"AVENIDA DA CRUZ, 75",COMBARRO - POIO,ESPAÑA,42.4350507,-8.7050135,SI
ALPE COMERCIAL (NO USAR),"AVDA. DA CRUZ, 75",COMBARRO (SAN ROQUE),ESPAÑA,42.4350507,-8.7050135,SI
ALPE COMERCIAL (O BURGO),"AVDA.MARTIN CODAX, 18-22 O BURGO",PONTEVEDRA,ESPAÑA,42.1122526,-8.837931,SI
ALPE COMERCIAL (O BURGO) (NO USAR),"AVDA.MARTIN CODAX, 18-22 O BURGO",PONTEVEDRA,ESPAÑA,42.1122526,-8.837931,SI
ALQUERIA VIVEROS,"C/FEIJOO, Nº1",CARTAMA,ESPAÑA,36.7104446,-4.6299287,SI
ALTHENIA,"AVDA.JOSE ORTEGA Y GASSET,112",MALAGA,ESPAÑA,36.7067289,-4.466699699999999,SI
"ALTO DO TRIGO, SL.","CTRA. GANDARA, 90 (VALLADARES)",VIGO,ESPAÑA,42.1611539,-8.7114459,SI
ALUMIA,"LUGAR DE MIUDAL, Nº 22 A",BERDOEJO,PORTUGAL,42.0458735,-8.5933583,SI
ALVARO FLORES,PIAS,O ROSAL,ESPAÑA,41.9162647,-8.8325826,SI
ALVARO INFORMATICO,"O BOUZON, 48 - PIÑEIRO",TOMIÑO,ESPAÑA,42.0142567,-8.6978837,SI
AMAR DE FLORES NAVIA,"AVDA. DE LOS EMIGRANTES, 14",NAVIA,ESPAÑA,43.5380315,-6.7249459,SI
AMARANTHUS,"MATEO CEDANE SOBRAL, 2 - PARQUESOL",VALLADOLID,ESPAÑA,41.6355036,-4.7591098,SI
AMAZONIA,"DANOK BAT, 12",PORTUGALETE,ESPAÑA,43.3223017,-3.0205562,SI
AMAZONIA HOME,"CTRA. M608, 25 KM",MANZANARES EL REAL,ESPAÑA,40.7247156,-3.8703326,SI
AMBAR FLORISTERIA,"C/. RIO NALON,2",OVIEDO,ESPAÑA,43.3670808,-5.8277076,SI
AMBULANCIAS Y POMPAS FUNEBRES SAN ANTONIO,"LG MONTECELO, 23",CORISTANCO,ESPAÑA,43.198845,-8.717684799999999,SI
AMELIA DA CONCEPCION,LONGOS VALESMONÇAO,NULL,PORTUGAL,41.5203766,-8.3634846,SI
AMFE,"C/ PRINCIPE DE VERGARA, 287",MADRID,ESPAÑA,40.4594712,-3.6770654,SI
AMOR DE DIOS,"CALLE DELICIAS, 40",MADRID,ESPAÑA,40.4038784,-3.6903016,SI
AMORIÑO 1988,"CALLE ARRAYAL, 39",TUI,ESPAÑA,42.0554305,-8.6369889,SI
AMPANS,"BERNAT DE CABRERA, Nº8",MANRESA,ESPAÑA,41.7376417,1.8310957,SI
ANA ANDUJAR,"CTRA.NACIONAL, 430 KM 315500",CIUDAD REAL,ESPAÑA,39.0305611,-4.1856171,SI
ANA BEATRIZ,CAMINHO DA ESTIVADA 2033,VILA FRANCA,PORTUGAL,41.6821647,-8.7546576,SI
ANA CRISTINA DE MELO PINTO,"LARGO NOSSA SENHORA DA AJUDA,4",PENAFIEL,PORTUGAL,41.2051398,-8.270017,SI
ANA CURTO,"ESTRADA NACIONAL, 378",FERNAO FERRO,PORTUGAL,38.5787701,-9.101149699999999,SI
ANA FLOR,"C/ RICARDO MARTÍN ESPERANZA, Nº 9",CIPRIÁN DAS VIÑAS,ESPAÑA,42.2891094,-7.8382939,SI
ANA GARCIA FLORISTAS,"CTRA. DE PONTEO, 3 BAJO",SAN CLAUDIO,ESPAÑA,43.359672,-5.9176532,SI
ANA JUSTE DISEÑO Y DECORACION,"C/. LOPEZ DE NEIRA, 2- 1º",VIGO,ESPAÑA,42.2372422,-8.7240815,SI
ANA KEYLA DA TRINDADE SILVA CRUZ,"RUA DA BELA VISTA Nº31, 1ºESQ. ALCANIÇACAPARICA E TRAFARIA",ALMADA,PORTUGAL,38.6655508,-9.1861238,SI
ANA PAULA TORRES,LONGO VALES,MONÇAO,PORTUGAL,42.0514022,-8.4472353,SI
ANA RODRIGUEZ (ACCES),"LUGAR COUSO-BASTUDA, 25",GONDOMAR,ESPAÑA,42.0830019,-8.7413043,SI
ANA TAVARES (EMPLEADO),"RUA JOSE GOMES SOARES, 65 5 ESQ",V.N.GAIA,PORTUGAL,41.1081841,-8.622195999999999,SI
ANADIA,ROUTE DE BEDARRIDES - LES CHEVALIERES Nº 1597,SARRIANS (VAUCLUSE),FRANCIA,44.0771709,4.955695,SI
ANASA PAISAJISMO,"AVDA. FERNANDEZ LATORRE, 17-2ºDCHA",CORUÑA (A),ESPAÑA,43.3594866,-8.4038232,SI
ANASTASIA & SEBASTIEN,C/. SAN ANTONIO 12,MORINIGO,ESPAÑA,40.9704612,-5.4130841,SI
ANCORPLANTA,"RUA DA SOBREIRA, Nº 111 - 2º ESQUERDO",VILA PRAIA DE ANCORA,PORTUGAL,41.81020710000001,-8.857158499999999,SI
ANDRE MAGALHAES (GAIA),RUA BARTOLOMEU DIAS 199 R/C ESQUERDO,MATOSINHOS,PORTUGAL,41.1946636,-8.702746600000001,SI
ANDROMENA FLORISTERIA,"AVENIDA RAMON Y CAJAL, 11",CHIVA,ESPAÑA,39.4710896,-0.7213155,SI
ANGA,"AVDA BRILATVII, Nº16",ZAMORA,ESPAÑA,41.4681711,-5.7668711,SI
ANGEL COVELO,"C/ PINTOR LAXEIRO, 4- BAJO",VIGO,ESPAÑA,42.2225713,-8.729701,SI
ANGEL PANADERO,"CALLE JOSE ANTONIO LOMBA CAMIÑA, 22",A GUARDA,ESPAÑA,41.9111887,-8.8576103,SI
ANGEL VAZQUEZ,"SARADELO, 17",CALEIRO (RESTO PARROQUIA),ESPAÑA,42.5632355,-8.8179893,SI
ANGELICA (EMPLEADO),"PONTECIÑA, 29A",TEBRA (SANTA MARIA),ESPAÑA,42.0422526,-8.7394762,SI
ANIFLOR,"R COMBATENTES, 252",RORIZ BCL,PORTUGAL,41.5960493,-8.582264799999999,SI
ANIPLANT,"C/ EL CRISTO, 9998",ABRAVESES DE TERA,ESPAÑA,41.98993309999999,-5.893663699999999,SI
ANITA MARGARITA,"C/JUAN ALBERTO BELLOCH, Nº2",MORA DE RUBIEROS,ESPAÑA,40.2525736,-0.7515119,SI
ANNA-FLORISTA,CTA. DE LOS FUERTES,CORUÑA (A),ESPAÑA,43.3710202,-8.4316844,SI
ANTELAGRO,"C/ SAN ROQUE, 40",XINZO DE LIMIA,ESPAÑA,42.061691,-7.726797899999999,SI
ANTHURIOS ARAUJO,"RUA PONTE DA SENRA, 131",CAVALOES VNF,PORTUGAL,41.4209508,-8.581201199999999,SI
ANTISAN FLOWERS,"AVDA. DEL OESTE, 44",VALENCIA,ESPAÑA,39.4702055,-0.379834,SI
ANTONIO,"SAN MARTIN DE TRASTO,238",PONTE DA BARCA,PORTUGAL,41.8447762,-8.1994276,SI
ANTONIO MARTINEZ INTERIORISMO,"CONCEPCION ARENA, 32 BAJO",GUARDA (A),ESPAÑA,40.46366700000001,-3.74922,SI
ANTONIO MURIEL,CTRA.N-432 BADAJOZ-GRANADA KM131			,BERLANGA,ESPAÑA,38.2687925,-5.8404373,SI
ANXO DOMINGUEZ,"C/RAMON NIETO, 126",VIGO,ESPAÑA,42.2295366,-8.6924254,SI
APROSMO - TERRA HORTI,"C/. SANTISIMO, 52",MOTRIL,ESPAÑA,36.7491992,-3.5131491,SI
AQUA FLORISTAS,"C/VICTORIANO MARTINEZ, 40",LEON,ESPAÑA,42.5809275,-5.5529293,SI
AQUALIA,C/. FEDERICO SALMON Nº13DIVISION 1KB2,TOMIÑO,ESPAÑA,41.9924192,-8.7424885,SI
ARALIA,C/BOUZA BREI Nº89,CORTEGADA DE BAÑOS,ESPAÑA,42.2073223,-8.170119999999999,SI
ARAMBILET ECHAVARRI MARIA CARMEN-FLORES AMAIA,"C/ERAS ALTAS, 23",CARCAR,ESPAÑA,42.3932174,-1.9787504,SI
ARANZAZU ESPADAS,"C/ DOCTOR MARAÑON, 2",PONFERRADA,ESPAÑA,42.549754,-6.6024933,SI
ARBOVITA AGRICULTURA E LAZER,ESTRADA DE MIRAVENTOS L-2,PALMELA,PORTUGAL,38.553202,-8.8834597,SI
ARCOFLOR,"C/ ANTONIO BECERRIL, 4",POZUELO DE ALARCON,ESPAÑA,40.4339446,-3.8135186,SI
ARENAS ESTUDIO FLORAL,"LUGAR DE ARENAS, 12",SOTO DEL BARCO,ESPAÑA,43.5115729,-6.049599499999999,SI
ARMAZEM LARANJA,LUGAR DA RAMALLA PRADO VILA VERDE,VILA VERDE,PORTUGAL,41.6136822,-8.4585595,SI
AROMA DO CAMPO,RUA DIARIO NOTICIAS Nº3BENAVENTE,SANTAREM,PORTUGAL,38.9792448,-8.8083285,SI
AROMAS DE LEYENDA,"C/RUA DO CASTRO, 2",CAMBADOS,ESPAÑA,42.5124153,-8.8076188,SI
ARRIBAS CENTER,"CTRA.VILASAR DE MAR-ARGENTONA, KM.1450",CABRERA DE MAR,ESPAÑA,41.5041512,2.3838304,SI
ARROAS SOLUCIONES TECNICAS SL,CUESTA DE FIGUEIRON Nº 11 B,BUEU,ESPAÑA,42.3304984,-8.800972800000002,SI
ART FLORAL VALLRIBERA,"CTRA. RIUDOMS-CAMBRIL, Nº1",RIUDOMS,ESPAÑA,41.0674909,1.0677207,SI
ART FLORAL VALLRIBERA (NO USAR),"CTRA. RIUDOMS A CAMBRILS, KM. 1",RIUDOMS,ESPAÑA,41.1387447,1.0548291,SI
"ARTE BOM JARDIM, UNIP.LDA","RUA DA RIBADEIROS, 411S.GEMS.FAFE",FAFE,PORTUGAL,41.4913402,-8.1557066,SI
ARTE E SUCULENTAS,R. ANTONIO SOUSA LISO LOTE 57 Nº10 QUINTA DOS PINHEIROS,CALDAS DA RAINHA,PORTUGAL,39.4037215,-9.1526056,SI
ARTE FLORAL LAS CAMELIAS,"C/. NUEVA, 10 LOCAL",ALCORCON,ESPAÑA,40.3480088,-3.827017,SI
ARTE FLORAL PILI,"MARQUÉS DE SAN FELIZ,13POLA DE LENA",POLA DE LENA,ESPAÑA,43.1606783,-5.8278224,SI
ARTE NOVO FLORISTERIA,"SERAFIN PAZO, 32","ESTRADA, (A)",ESPAÑA,42.6885188,-8.489937399999999,SI
ARTEA,AVE MARIA 22 BAJO,PONFERRADA,ESPAÑA,42.5480513,-6.600244,SI
ARTIFLORA,"AVDA.CASTELL D´ARO, 110",PLATJA D'ARO,ESPAÑA,41.8164788,3.0540949,SI
ARTIVARIUS,LARGO SAO JOAO DE DEUS,MONÇAO,PORTUGAL,42.0768602,-8.480910999999999,SI
ARTURO RODRIGUEZ,"CAMINO BAJADA AL RIO MIÑO, 6 - SALCIDOS",A GUARDA,ESPAÑA,41.9100377,-8.860152,SI
ARUAL EVENTS,C/CERCA M 5,ORENSE,ESPAÑA,42.33578929999999,-7.863880999999998,SI
AS FLORES DE REI,"LUGAR DE BARREIROS, 5",A BAÑA,ESPAÑA,42.9566167,-8.8196314,SI
AS NOSAS COUSAS,"BARRIO A ROTEA, 2",FORNELOS DE MONTES,ESPAÑA,42.3400363,-8.4537164,SI
ASDEME ASOCIACION,"CTRA. DO SEIXO, S/N",CHANTADA,ESPAÑA,42.6065712,-7.7790714,SI
ASERPINTO,"CALLE PABLO PICASSO, 4",PINTO,ESPAÑA,40.2375365,-3.6939123,SI
ASOC CULTURAL E CREATIVA O SANATORIO,"RUA ANDRES MURUAIS, N.7PLANTA 1 Nº7-9",PONTEVEDRA,ESPAÑA,42.4290524,-8.6438018,SI
ASOC. SOCIOCULTURAL MARIANA,"C/. HOSTPITAL, 44",ARTEIXO,ESPAÑA,43.3038683,-8.510297399999999,SI
ASOC.CULTURAL PERPETUO SOCORRO-TOMIÑO,"LG VILAMEAN, 9TEBRA",TOMIÑO,ESPAÑA,42.026261,-8.7378165,SI
ASOCIACION AGÂRA,"AVENIDA VILABOA, 97 DC.",CULLEREDO,ESPAÑA,43.31294399999999,-8.383301099999999,SI
ASOCIACION DE VECINOS SANTA EULALIA DE DONAS,BARRIO SOUTO CENTRO CULTURAL DONAS 13,NULL,ESPAÑA,42.7163197,-8.654264,SI
ASOCIACION EFA A CANCELA,"TORTOREOS, S/N",AS NEVES,ESPAÑA,42.0990901,-8.4339113,SI
ASOCIACION MAWENYA,"ALVARIZA, 22",BELMONTE,ESPAÑA,43.2973905,-6.2350279,SI
ASOCIACION SOCIOCULTURAL LE VIOLET,"C/.CORTES DE CADIZ, 1 BJO.DCHA.",GIJON,ESPAÑA,43.538791,-5.6845384,SI
ASOSCIACION FORESTAL E EDUCACION AMBIENTAL A A JALLEIRA,"RUA CORUTO VELLO, Nº49",GUARDA (A),ESPAÑA,41.9077292,-8.858396,SI
ASPOFLOR,"RUA TRASDEZA, 44",SILLEDA,ESPAÑA,42.6981775,-8.2490049,SI
ASPROSUB  VIRGEN DE LA VEGA,"C/.CAMINO DE LOS SALADOS, S/N",BENAVENTE,ESPAÑA,42.0028837,-5.6784691,SI
ASPROSUB ZAMORA,"C/PILAR MIRO,1",VALLADOLID,ESPAÑA,41.6294224,-4.735837399999999,SI
ASTROFLOR,GLORIETA PUERTA DE HIERRO S/N,MADRID,ESPAÑA,40.4534276,-3.7447593,SI
ASVINOR,ROSALIA DE CASTRO 53 B3,AMES,ESPAÑA,42.8419483,-8.5785825,SI
ASYCO CONSULTORES,"CONDESA CASA BARCENA, 9",VIGO,ESPAÑA,42.2316458,-8.7107388,SI
ATAVIOS LOLA,"RUA SAN ROQUE, 15 - BAJO",SANTIAGO DE COMPOSTELA,ESPAÑA,42.883857,-8.5419603,SI
ATELIER DE FLORES,"RUA DOS BOMBEIROS, Nº9 R/C",ESPOSENDE,PORTUGAL,41.5335881,-8.7788965,SI
ATMOSFERA SPORT,"CALLE TOMIÑO, Nº 7 - BAJO DERECHA",A GUARDA,ESPAÑA,41.9016972,-8.8687037,SI
ATREZO FLORISTAS,"AV. DE LA ILUSTRACIÓN 57, BAJO A",GRANADA,ESPAÑA,37.1495663,-3.605321699999999,SI
AUGALUZ,"C/COUSO, 19- BAJO 3","ROSAL, (O)",ESPAÑA,41.93432,-8.83624,SI
AUGUSTO Y SOUSA,"MANCHICA, 45","MERCA, (A)",ESPAÑA,42.2219807,-7.9083294,SI
AUTOSERVICIO-FLORISTERIA MARY (NO USAR),"C/RUA DO CASTRO, 2",CAMBADOS,ESPAÑA,42.5124153,-8.8076188,SI
AVELINO FONTAN,"Bº COSTAL, 17A",COVELO,ESPAÑA,41.97439139999999,-8.7475308,SI
AVICOLA RUA,C/. GRADUIL 19-23,CAMBRE (SANTA MARIA),ESPAÑA,43.2914098,-8.3393483,SI
AXARQUIA PLANTS,"LUGAR PAGO DE CABRILLAS, Nº203",VELEZ,ESPAÑA,36.7798942,-4.100544999999999,SI
AYM FLORISTERIA,"RUA TELMO BERNARDEZ, 2 - BAJO",REDONDELA,ESPAÑA,42.2836893,-8.607744199999999,SI
AYUNTAMIENTO DE BEJAR,"PLAZA MAYOR, 7",BEJAR,ESPAÑA,40.3482694,-5.8933855,SI
AYUNTAMIENTO DE BENALMADENA,"AVENIDA JUAN LUIS PERALTA, 20",BENALMADENA,ESPAÑA,36.5950389,-4.5733644,SI
AYUNTAMIENTO DE MORALEJA,"PLAZA DE ESPAÑA, 1",MORALEJA,ESPAÑA,40.0685192,-6.661371399999999,SI
AYUNTAMIENTO DE SIERO,PLAZA DEL AYUNTAMIENTO S/N,POLA DE SIERO,ESPAÑA,43.3915224,-5.660825,SI
AYUNTAMIENTO VITORIA GASTEIZ,"C/ PINTOR TEODORO DUBLANG, 25",VITORIA-GASTEIZ,ESPAÑA,42.8441803,-2.685937,SI
AZAHAR FLORISTAS,"CTRA DE AVILA, 34",SAN MARTIN DE VALDEIGLESIAS,ESPAÑA,40.3619206,-4.4067202,SI
AZAHAR FLORISTERIA,"C/ESCULTOR RIVERA, 53",LA BAÑEZA,ESPAÑA,42.2978116,-5.9013006,SI
AZALEA (RIOJA),"AVDA. DE MADRID, 324",LARDERO,ESPAÑA,42.4174197,-2.460743,SI
AZALEA FLORISTERIA (CUENCA),"CALLE HERNAN CORTES, 72",MOTA DEL CUERVO,ESPAÑA,39.5038081,-2.8661724,SI
AZUCENA FLORES (NO USAR),"C/LABRA, 14-1º D DCHA.",OVIEDO,ESPAÑA,43.3618511,-5.0592183,SI
BAIUCA EVENTOS,LUGAR DE GODA Nº5ARTES,RIBEIRA,ESPAÑA,42.5540645,-8.9922481,SI
BALSA,CORISTANCO,CORUÑA (A),ESPAÑA,43.1904421,-8.7609893,SI
BALUMADA,"C/ ALEXANDRE BOVEDA, 90
CASCO URBANO",GROVE (O),ESPAÑA,42.4959962,-8.8651418,SI
BAMBU ARTE FLORAL,"C/COLON, 25",PALENCIA,ESPAÑA,42.0082148,-4.5309631,SI
BAMBU PRODUCCIONES,"C/MATO CALDERON, 39 - 3ºA",PONTEVEDRA,ESPAÑA,42.4374759,-8.655593399999999,SI
BAMBUNOVA,"C/DOCTOR FLEMING, 11",TABRNES DE LA VALLDIGNA,ESPAÑA,39.0721022,-0.2653547,SI
BARCENA DISEÑO FLORAL,"C/. MAYOR, 102",GRIÑON,ESPAÑA,40.2140728,-3.8547939,SI
BARREIRO Y PARDAL CB,"C/.MAGDALENA, 18CARRACEDELO",VILARDEPALOS,ESPAÑA,42.5355476,-6.7580901,SI
BAZAR COFRE DE PYKE,"C/.MENENDEZ PELAYO, 18 BAJO",PALENCIA,ESPAÑA,42.01129700000001,-4.5343624,SI
BAZAR DROGUERIA AGRA,CALLE DE Nº 5,LALIN,ESPAÑA,42.6632379,-8.1111439,SI
BAZAR MIRACRUZ,"C/. MIRACRUZ, 9",SAN SEBASTIAN,ESPAÑA,43.3219483,-1.9758424,SI
BAZAR NYT,"C/. TRAVESIA DE VIGO, 8",COVELO (O),ESPAÑA,42.2317734,-8.36225,SI
BEA VIZOSO,"CAMIÑO DO PEREIRO, Nº 8 MARZAN",O ROSAL,ESPAÑA,41.9342139,-8.853035799999999,SI
BEADE AGROFITA SL,"AVDA. RAMIRO PASCUAL, 33",BEADE,ESPAÑA,42.1956066,-8.7165634,SI
BEATE MENDEZ,"PROCELAS, 31",TEO,ESPAÑA,42.8223431,-8.5257591,SI
BEATRIZ ARTE FLORAL,"RUA DA CANADA, 4",SEMANCELLE,PORTUGAL,40.3147419,-7.3299296,SI
BEGOÑA,"C/.PICOUZO,27",BUDIÑO,ESPAÑA,42.1174961,-8.6005814,SI
BELA ARTE,"AVDA.S. JANUARIO, LOJA,6",FAO,PORTUGAL,41.5127714,-8.773725599999999,SI
BELHABITATS SL,BARRANTES MOSTEIRO 10,TOMIÑO,ESPAÑA,42.0119682,-8.747706899999999,SI
BENDITA TINTA,"CALLE RIO EO, 41",GIJON,ESPAÑA,43.5238291,-5.6738143,SI
BENEDICTO GARDEN,LUGAR PIROJA-SALTO Nº S/N,VIMIANZO,ESPAÑA,43.1130308,-8.9987348,SI
BERROA GARDEN,"C/.INTXAURDIA, 14",HUARTE - PAMPLONA,ESPAÑA,42.8269017,-1.5853994,SI
BERTA FLORES,"C/. LUIS SUAREZ XIMIELGA, 11 BAJO",COLLOTO (OVIEDO),ESPAÑA,43.3783048,-5.791140299999999,SI
BERTA GARRIDO,"IGLESIA, Nº16",ADINA,ESPAÑA,42.4075904,-8.8360472,SI
"BESADA CARBON, LEÑA Y PELLETS","LA VICHONA, 45",SANXENXO,ESPAÑA,42.426185,-8.8229332,SI
"BESADA CARBON, LEÑA Y PELLETS (NO USAR)","VICHONA, 45",SANXENXO,ESPAÑA,42.416489,-8.8252502,SI
BIANCHINI BIARRITZ,CD 254 CHEMIN DE LORTENIA,ARCANGUES,FRANCIA,43.4531906,-1.5254787,SI
BIDI DESIGN,"RUA QUEIROS - RIBEIRO, Nº 22",VILA NOVA DE CERVEIRA,PORTUGAL,41.9406074,-8.742692,SI
BILBOLOREAK SL,"POLIGONO ARTUN DOAGA, 4 8ºA",BIZCAYA,ESPAÑA,43.2204286,-2.6983868,SI
BILITROQUE,C/RIO JUBIA 215 3º IZQ,FERROL,ESPAÑA,43.4944694,-8.2132899,SI
BILLIGBLOMST AALBORG,FISKENE 20,AALBORG,DINAMARCA,56.9991524,9.866312599999999,SI
BILLIGBLOMST AARHUS,"RUNETOFTEN, 7-13",AARHUS V,DINAMARCA,56.17577,10.1402184,SI
BILLIGBLOMST ADM,VINTERVEJ 7,AARGHUS V,DINAMARCA,56.1752279,10.1492477,SI
BILLIGBLOMST CITY AARHUS APS,"FREDERIKSGADE 83, ST",AARHUS C,DINAMARCA,56.1534691,10.2029962,SI
BILLIGBLOMST CITY CPPH APS-VALBY,ROSKILDEVEJ 148D,VALBY,DINAMARCA,55.67277499999999,12.4880671,SI
BILLIGBLOMST FREDERICIA,"SKAERBAEKVEJ, 3",FREDERICIA,DINAMARCA,55.5644212,9.6847397,SI
BILLIGBLOMST HERNING,VEJLEVEJ 13,HERNING,DINAMARCA,56.1148014,8.9767108,SI
BILLIGBLOMST HILLEROD,SIGRUNDSVEJ 39,HILLEROD,DINAMARCA,55.9327492,12.2571337,SI
BILLIGBLOMST HOLBAEK,STENHUSVEJ 49B,HOLBAEK,DINAMARCA,55.7008045,11.6730927,SI
BILLIGBLOMST KOLDING,"MONTEN, 4",KOLDING,DINAMARCA,55.5090027,9.4550463,SI
BILLIGBLOMST LANGESKOV,NYBORGVEJ 39,LANGESKOV,DINAMARCA,55.3605028,10.6001301,SI
BILLIGBLOMST NAESTVED,GARTNERVEJ 1HOLME-OLSTRUP,HOLMEGAARD,DINAMARCA,55.2610498,11.8588545,SI
BILLIGBLOMST RANDERS,MARSVEJ 7C,RANDERS,DINAMARCA,56.4264643,10.0618157,SI
BILLIGBLOMST RUNGSTED,"TRUE MOLLEVEJ, 7",TILS,DINAMARCA,56.1857135,10.0913585,SI
BILLIGBLOMST SONDERBORG,AUGUSTENBORG LANDEVEJ 13,SONDERBORG,DINAMARCA,54.9227709,9.8137891,SI
BIOAGRO ALLARIZ,POLIGONO 8-20 PARC.2C,ALLARIZ,ESPAÑA,42.18946649999999,-7.800552199999999,SI
BIOAGRO ALLARIZ (NO USAR),POLIGONO 8-20 PARC. 2C,ALLARIZ,ESPAÑA,42.18946649999999,-7.800552199999999,SI
BIOENSO,"C/PROGRESO, 25",SILLEDA (CASCO URBANO),ESPAÑA,42.7020616,-8.2445422,SI
BIOFILIA DECO,"C/LA CORTE, 52 - 3 C",BENICASIM,ESPAÑA,40.0498556,0.0691571,SI
BIOHOME GARDENPLANT,"R DA CAPELA, 67SOSA",VAGOS,PORTUGAL,40.5427273,-8.6931127,SI
BIOSABOR,ESTRADA NACIONAL 125 CX POSTAL 110XLAGOS,ALGARVE,PORTUGAL,37.1127121,-8.6816316,SI
BIOVERDI,"LAGOA, 44",CARTELLE,ESPAÑA,42.2487692,-8.0702515,SI
BLOEMISTENPLEIN,POSTBUS 1049,BA AALSMEER,PAISES BAJOS (HOLANDA),52.2621639,4.7619222,SI
BLOM MARKET,"C/BOTIGUERS, 3-PLANTA 2ºB (Parque empresarial Táctica)",PATERNA,ESPAÑA,39.5124899,-0.4509000999999999,SI
BLOOMING TOWN,"C/. LAS YUCAS, 10 PLANTA 2 PUERTA X",FUENGIROLA,ESPAÑA,36.5614713,-4.625788399999999,SI
BLOOMINGDAY,AV.DE TENERIFE N.27,SAN SEBASTIAN DE LOS REYES,ESPAÑA,40.5595721,-3.6158507,SI
BLOOMLANDSCAPING,RUA DR JOSE MENDONÇA CORTEZ BL 2 1º FR,OLHAO,PORTUGAL,37.0346996,-7.835893,SI
BLOOMOON,R MOCIDADE Nº46NOGUEIRA REGEDOURA,SANTA MARIA DA FEIRA,PORTUGAL,41.0029854,-8.5688901,SI
BLUE VAN,"ESTRADA TUI - A GUARDIA, N 4 - PIAS",O ROSAL,ESPAÑA,41.92579550000001,-8.805161,SI
BLUMEN ARTE EN FLOR,"C/. BOLIVIA, 37-BAJO",VIGO,ESPAÑA,42.24059889999999,-8.7207268,SI
BLUMENARIA,"C/. RANCHO, 10, 1ºF",SEGOVIA,ESPAÑA,40.9401898,-4.1143879,SI
BOCA FINISTERRAE,"LUGAR DE VILLARDEFRANCOS, Nº2",CARBALLO,ESPAÑA,43.1819541,-8.6444656,SI
BOCACAIMAN IBERICA (NO USAR),"LUGAR VILLAR DE FRANCOS, 2",CARBALLO,ESPAÑA,43.1819541,-8.6444656,SI
BODEGAS MEJUTO,"RONDA DE PONTEVEDRA, 74",MELIDE,ESPAÑA,42.90919100000001,-8.015997,SI
BOHEMIA FLORES,"AVENIDA COLON, 21",OVIEDO,ESPAÑA,43.3630054,-5.8606777,SI
BOHEMIA FLORES Y PLANTAS,"AVDA. COLON, 21",OVIEDO,ESPAÑA,43.3630054,-5.8606777,SI
BOL INVERSIONES,"C/ RUEIRO, 14",AMES,ESPAÑA,42.8606161,-8.655996,SI
BORDADOS BALBI,"C/. BANZES Y VALDES, 9, 3ºF",PRAVIA,ESPAÑA,43.4891496,-6.114992699999999,SI
BOSQUE,"R MESTRE LUCIANO MARQUES, Nº1FEITAL-BELINHO",ESPOSENDE,PORTUGAL,41.5906549,-8.7832682,SI
BOT,B. LAS HUERTAS N.174,ARGOMILLA DE CAYÓN,ESPAÑA,43.313386,-3.8790372,SI
BOTAMBI,"EZCURDIA, 41",GIJON,ESPAÑA,43.5392877,-5.652177000000001,SI
BOTANI EXTREMADURA SL,"CARRETERA DE SEVILLA KM 1,8",BADAJOZ,ESPAÑA,38.8611312,-6.947638299999999,SI
BOTANIC CENTER ARAGON SL,"CAMINO DE BARBOLES, 393",GARRAPINILLOS,ESPAÑA,41.664897,-1.002082,SI
BOTANICA URBANA CREATIVA,"C/. AUSIAS MARCH, 18-7º/14",VILA REAL,ESPAÑA,39.9377026,-0.0958628,SI
"BOTANICA, JARDINERIA Y PAISAJISMO",MIENAGOS 4,OLES,ESPAÑA,43.5396273,-5.4279635,SI
BOTICA DO AGRO,"A XIRA, NAVE 1B",SIGRAS - CAMBRE,ESPAÑA,43.2904262,-8.3653465,SI
BOUQUET ART FLOR,"AV. JUAN LUIS PERALTA, 43",BENALMADENA,ESPAÑA,36.5957333,-4.573248,SI
BOUQUET FLORES Y PLANTAS,"C/. VAZQUEZ DE MELLA, 35",OVIEDO,ESPAÑA,43.3663775,-5.8652862,SI
BOUQUET OF EMOTIONS,"C/. TORRENTE BALLESTER, Nº13 ESC.6 P-1 BAJO",MARBELLA,ESPAÑA,36.4984944,-4.9804455,SI
BOUTIQUE  DE  LA  FLOR,AVDA. CALVO  SOTELO  N. 16  BAJO,A CORUÑA,ESPAÑA,43.3650442,-8.4140128,SI
BOUTIQUE DEL CACTUS,"C. JUAQUIN SOROLLA, 20",MRCIA,ESPAÑA,37.6636326,-1.7034312,SI
"BRAÑA, SOC. COOP. LTADA",ESTRADA SAN PEDRO DE ROCAS,TARREIRIGO-ESGOS,ESPAÑA,42.3418883,-7.7134122,SI
BRASAANÏ,"C/ ROSALIA DE CASTRO, 1 - LOCAL 8",PONTEVEDRA,ESPAÑA,42.4290112,-8.6464213,SI
BRENA DE ARGUEBANES,"CALLE TRASCASTRO, 11 BAJO IZQ.",PANDO RUILOBA,ESPAÑA,43.3786891,-4.2608972,SI
BRICOURENSE,"OTERO PEDRAYO, 36",OURENSE,ESPAÑA,42.3414,-7.851719500000001,SI
BRIOENFLOR,"AVDA.DE LA HABANA, 42",OURENSE,ESPAÑA,42.3419489,-7.862016499999999,SI
BROCOLI,"FIDIAS, 32",MALAGA,ESPAÑA,36.6906573,-4.4641929,SI
BROT FLORISTAS,"GREMIO TEJEDORAS, Nº27 - POLG.DE SON LLAUT",SANTA MARIA DEL CAMI (ISLA DE MALLORCA),ESPAÑA,39.653943,2.7922783,SI
BUENOS AIRES GARDEN,"RUA GERALDINO BRITES BLOCO, 3-1 IZQUIERDOLOULE",ALGARVE,PORTUGAL,37.1348354,-8.0190643,SI
BUREK FLORISTERIA,"AVDA. DE RIBADOS, Nº 8 - EL BURGO",CULLEREDO,ESPAÑA,43.314841,-8.367293199999999,SI
BURGANO DELICATESSEN,"O LAGAR, Nº 37 - VILAR DAS TRES",OURENSE,ESPAÑA,42.3828285,-7.8786228,SI
BY HORTENSIA,"C/.REINANTE, 39",RIBADEO,ESPAÑA,43.5356311,-7.0424038,SI
BY LOLINDO,"C/. GIL Y CARRASCO, 7",LEON,ESPAÑA,42.5966119,-5.5733296,SI
BYDORA FLOWERS,"ESTRADA DOS CERROS ALTOS, URB MONTE DO PINHEIRO LOTE C",MOSQUEIRA,PORTUGAL,37.1187194,-8.2167788,SI
C.M.V.M.C. DE MOUGAS-OIA,"ESTRADA GALGUEIRO, Nº32",OIA,ESPAÑA,42.0477317,-8.8779532,SI
CACTIJARDINS,"ESTRADA NACIONAL, 125VALE DE LOUSAS N423 A KM58PORCHES LAGOA",FARO,PORTUGAL,37.1346084,-8.4513272,SI
CACTUS Y EPIFITAS u ORNAMEDITERRANEO,"AVENIDA DE LAS NACIONES, 8",EJIDO (EL),ESPAÑA,36.7713189,-2.799895,SI
CAFETERIA SHERATON,"AVDA. MONTERREAL, 2 - BAJO",BAIONA,ESPAÑA,42.1175823,-8.845222999999999,SI
CAFETERIA SHERATON (NO USAR),"AVDA. MONTERREAL, 2 - BAJO",BAIONA,ESPAÑA,42.1175823,-8.845222999999999,SI
CALATHEA FLORES,"AVDA. ASTORGA, 92",VIRGEN DEL CAMINO (A),ESPAÑA,42.5804341,-5.6408249,SI
CALIKUT 10,"C/ PANAMA, 4",LAS ROZAS,ESPAÑA,40.54168749999999,-3.9008766,SI
CALOR COLOR,"RUA CASTIÑEIRAS, 108 A",AMES,ESPAÑA,42.8518416,-8.5833028,SI
CAMARA DE CUENTAS DE ANDALUCIA,"C/. DON FADRIQUE, S/NHOSPITAL DE LAS CINCO LLAGAS",SEVILLA,ESPAÑA,37.405155,-5.9884496,SI
CAMAYT,"C/.RAMON PUGA, 44",OURENSE,ESPAÑA,42.3273523,-7.8591922,SI
CAMELIAS DARTE GARDEN LDA,"RUA MONSENHOR MAGALHAES LIMA, 763",CELORICO DE BASTO,PORTUGAL,41.3938259,-7.9921157,SI
CAMIÑO NOVO,"CAMIÑO NOVO, 7",TOMIÑO,ESPAÑA,41.9916962,-8.7446284,SI
CAMIÑO VERDE,"CALLE AMERICA, 11 BAJO",ALMERIA,ESPAÑA,36.8320626,-2.4551903,SI
CAMPEL INTERNATIONAL,"RUA DO GUNTIM, 77",SANTA MARIA MAIOR,PORTUGAL,41.6951796,-8.8232391,SI
CAMPESTRIS SOC. AGRICOLA LDA,"RUA PROFESSOR REINALDO DOS SANTOS, Nº48 B",LISBOA,PORTUGAL,38.7489151,-9.1882311,SI
CAMPO CIUDAD,"CTRA.DE LAS SALINAS, KM 3,4",MEDINA DEL CAMPO,ESPAÑA,41.2680932,-4.9113071,SI
CAMPO Y JARDIN FLORISTERIA,"AVDA. PUENTE DE HIERRO, 42",CARRIZO DE LA RIBERA,ESPAÑA,42.5846866,-5.8262585,SI
CAMPOATRAVES,"C/REAL, 2",CAMBADOS,ESPAÑA,42.51574069999999,-8.8133964,SI
CAMPOGAR,"AVDA.DECAMBADOS, 61 - BAIXO-MOSTEIRO",MEIS,ESPAÑA,42.5181469,-8.703038900000001,SI
CAMPOS FLORISTAS,"C/. PADRE ALLER, 1",OVIEDO,ESPAÑA,43.3682853,-5.8657417,SI
CAN JUANITO,"CTRA. MANACOR, KM. 6,6				",SON FERRIOL,ESPAÑA,39.5708544,2.8041118,SI
CANCARO ARTE FLORAL,"TRAVESIA DE ARTEIXO, 3",ARTEIXO,ESPAÑA,43.3163767,-8.490886999999999,SI
CANDEA FLORISTAS,"AVDA.A CORUÑA, 178",LUGO,ESPAÑA,43.1231799,-7.6325739,SI
CANDIDA,"CARRETERA DE FILGUEIRA, 37",RIBADAVIA,ESPAÑA,42.2773007,-8.158271,SI
CANDIDA MARTINEZ,"STA.MARIA DE TEBRA-CARBALLAL, 2",TOMIÑO,ESPAÑA,41.9924192,-8.7424885,SI
CAPRI,"AVDA. GABRIEL MIRO, 40",ALICANTE,ESPAÑA,38.6421235,0.0506285,SI
CAPRICHOS DE NIGRAN,"AVDA.VAL MIÑOR, Nº2 BAJO",NIGRAN,ESPAÑA,42.1472474,-8.8058501,SI
CARABELA ARTE FLORAL,Avenida casanova de Eiris 39 15009 A Coruña Bajo izquierda,A Coruña,ESPAÑA,43.348313,-8.3967815,SI
CARAVEL FLORISTAS,C/.BENIGNO SANTOS,VILAXOAN-VILAGARCIA,ESPAÑA,42.5868231,-8.7863194,SI
CARBALLEIRA XARDINS SL,GORGUA Nº 18,PADRENDA,ESPAÑA,42.1073834,-8.1360195,SI
CARBALLO ASESORIA,"MARIA VERDIALES, 16 ENTRESUELO",VIGO,ESPAÑA,42.23482,-8.719954699999999,SI
CARI FLOWER SHOP,"AV. DE L'ERAMPRUNYÁ, 14",BARCELONA,ESPAÑA,41.3094612,1.9986241,SI
CARLA VALLADARES,"CAMIÑO DA POMBA, 71",VALLADARES GARRIDA,ESPAÑA,42.1673768,-8.7158039,SI
CARLAJOA,"LAMEIRA, 1-PARADA DE ACHAS",A CAÑIZA,ESPAÑA,42.1740041,-8.311366300000001,SI
CARLOS ALBERTO,"ESTRADA DA PONTE, 72",CAMINHA,PORTUGAL,41.8881615,-8.790513299999999,SI
CARLOS ALBERTO MARAVILHA,"VIA SUL, Nº11",MACEDO DE CAVALEIROS,PORTUGAL,41.5370005,-6.9617993,SI
CARLOS CORRÓ,"C/ MONTEHERMOSO, 11 - BAJO A",MADRID,ESPAÑA,40.3944018,-3.7733084,SI
CARLOS MANUEL MARTINS LORENZO,RUA REGUEIRIÑOS 25,NIGRAN,ESPAÑA,42.16570189999999,-8.7942459,SI
"CARMEL, DECORACION FLORAL","CALLE JUAN BRAVO, 70",MADRID,ESPAÑA,40.432082,-3.6726638,SI
CARMEN FLORES,"C/DOS DE MAYO,35 - NATAHOYO",GIJON,ESPAÑA,43.5386169,-5.685250799999999,SI
CARMEN FLORES,"C/.RAMON Y CAJAL, 7",AVILES,ESPAÑA,43.5521023,-5.929927,SI
CARMEN JIMENO,"AVDA. DE GIJON, 77",VALLADOLID,ESPAÑA,41.6599694,-4.7578656,SI
CARMEN MINOTTA,"PASEO ANDRES VERAGRA, 1 CHALET B5",MADRID,ESPAÑA,40.57757429999999,-3.9528136,SI
CARMEN QUINTAS FERNANDEZ,"C/.REGUEIRO BARBADAS, 27",BARBADAS,ESPAÑA,42.2976741,-7.8854158,SI
CARMEN SIO,"CTRA.CAMPOSANCOS, 35-S.ANDRES DE COMESÑA",VIGO,ESPAÑA,42.2019968,-8.7545608,SI
CARMIÑA(BERTAMIRANS),CIRRO-SAN SALVADOR,BRION,ESPAÑA,42.83086040000001,-8.655761400000001,SI
CARMITA,"RUA DA CAPELA, Nº43 SALGUEIRO - SOZA",VAGOS,PORTUGAL,40.5446084,-8.660973499999999,SI
CARNICERIA J.VEIGA,"PLAZA DE ABASTOS DE PONTEVEDRA, 21-23-25",PONTEVEDRA,ESPAÑA,42.4298846,-8.6446202,SI
CAROLINA RAGUSEO DISEÑO FLORAL,"C/. VICENTE BLASCO IBAÑEZ, 76 PL. 2 PTA.C",MADRID,ESPAÑA,40.495942,-3.65246,SI
CAROU TURNER JUAN JOSE,"C/. ANCHA, 11",MUROS,ESPAÑA,42.7751587,-9.0587393,SI
CASA ALEN,"RUA SANTIAGO, 11",BIDUEDO (SAN CRISTOVO DE CEA),ESPAÑA,42.4577825,-7.9514543,SI
CASA BARROS,"CTRA. DE DIMO, 15",CATOIRA,ESPAÑA,42.6667838,-8.7216008,SI
CASA BENITO *** NO USAR ***,"ALXEN, 7",SALVATERRA DE MIÑO,ESPAÑA,42.1081638,-8.529062999999999,SI
CASA BENITO,"ALXEN, 7",SALVATERRA DE MIÑO,ESPAÑA,42.1081638,-8.529062999999999,SI
CASA DE LAS FLORES,"CAMINO DE BERESMO, Nº 1",AVION,ESPAÑA,42.3819457,-8.233151699999999,SI
CASA DE SEZIM AGRICULTURA TURISMO E INVESTIMENTOS,R. DE SEZIM,GUIMARAES,PORTUGAL,41.4192321,-8.3218015,SI
CASA GOMES,"RUA DOS GABRIEIS, 8CASAL COCHIM-SILVEIRA",SILVEIRA,PORTUGAL,39.1117376,-9.371442,SI
CASA MACEIRA,"LUGAR TOMADA, Nº26 B",FIGUEIRO,ESPAÑA,41.9655515,-8.7737603,SI
CASA PARIS,"RUA FONTE DA VILA, 65",MELGAÇO,PORTUGAL,42.1153989,-8.2566393,SI
CASA RURAL LA TERRONA,"CAMINO DE LA BOVIA, 1636",GIJON,ESPAÑA,43.4612707,-5.6346053,SI
CASA VERDE,"DEF.RODAS, Nº2 R/C - TROIAS CRISTELO COVO",NULL,PORTUGAL,42.0196006,-8.639683699999999,SI
CASA Y CAMPO,"PASEO DE LAS PERDICES, 5",SAN SEBASTIAN DE LOS REYES,ESPAÑA,40.6246771,-3.5885053,SI
CASABELLA CARRIZO,"C/ MARQUESES DE SANTA MARIA DE CARRIZO, Nº6",CARRIZO DE LA RIBERA,ESPAÑA,42.5840572,-5.8300061,SI
CASAL TEBRA,"CASAL, 13",TEBRA (SAN SALVADOR),ESPAÑA,43.3925016,-3.8052276,SI
CASANOVA JARDINS,"RUA DA GALEGA, 27",PORTUZELO,PORTUGAL,41.7037703,-8.7796946,SI
CASAPLANTA VIGO,"BAIXADA PONTENOVA - TEIXEIRO, 58",VIGO,ESPAÑA,42.2182115,-8.722906,SI
CASAREINA,"C/.GATZARRINE, 67",SOPELANA,ESPAÑA,43.36907009999999,-2.9607343,SI
CASTILLA FLORISTERIA,"C/.EDUARDO MARTINEZ DEL CAMPO,4",BURGOS,ESPAÑA,42.3392511,-3.7048232,SI
CATALINA BEDOYA,"PLAZA DE LAS ERAS DE ARRIBA, 4",COBEÑA,ESPAÑA,40.5714873,-3.5047649,SI
CATARINA PEREIRA DA COSTA,RUA BELGICA 1246 CANIDELO,VILA NOVA DE GAIA,PORTUGAL,41.1318108,-8.6544888,SI
CATAVENTO (CANGAS),"MONTERO RIOS, 14",CANGAS DO MORRAZO,ESPAÑA,42.2617836,-8.785447099999999,SI
CATIA ROCHA,R 25 DE ABRIL 278 AMEIXEDE,ENTRE OS RIOS PENAFIEL,PORTUGAL,41.1022556,-8.3000278,SI
CATRO FOLLAS,RUA CORUÑA Nº10 BAIXO 3,CEE,ESPAÑA,42.9570947,-9.1924368,SI
"CAZORLA GIMENEZ, CANDELARIA","C/CARABELA Nº 16 PLANTA 2, PUERTA 6",ALMERIMAR,ESPAÑA,36.6975695,-2.788318,SI
CCPLANTS,"SOUTULLO, 4",ERBECEDO,ESPAÑA,43.1490737,-8.6953041,SI
CECILIA ANGELICA CAMPO DE FIORI,C/LUIS TREILLAND Nº 2 BAJO,SALINAS,ESPAÑA,43.5723753,-5.9608978,SI
CEE SALADINO CORTIZO,"CARVALLAL, 60",VIGO,ESPAÑA,42.1938065,-8.6833076,SI
CEIP FONTES BAÍÑA,"FONTES, 16BAHIÑA",BAIONA,ESPAÑA,42.106086,-8.859192499999999,SI
CEIP PLURILINGÜE Nº1 DE TUI,"AVDA. CANONIGO VALIÑO, S/N",TUI,ESPAÑA,42.0509046,-8.6397687,SI
CEL OGANDO FLORES ARTESANAIS,"PRAZA PADRE FRANCISCO GOMEZ, 2-3A",SANTIAGO DE COMPOSTELA,ESPAÑA,42.8646699,-8.560063999999999,SI
CELESTE FLORISTAS,"SANJURJO BADIA, 167-3ºA",VIGO,ESPAÑA,42.2486921,-8.6977032,SI
CELESTE PELUQUERIA,"SANJURJO BADIA, 103  - BAJO DCHA",VIGO,ESPAÑA,42.246217,-8.701767199999999,SI
CELGREEN,RUA DA FONTE DO GATO N.230 BLOCO 1 2DTBORRALHA,AGUEDA,PORTUGAL,40.5762594,-8.449049,SI
CELIA LEMA,"C/ERVEDELO, 65  BAJO",OURENSE,ESPAÑA,42.34105590000001,-7.873965900000001,SI
CENTER HOLDING,"RUA C, Nº1",LAGARTONS - A ESTRADA,ESPAÑA,42.6917278,-8.4490699,SI
CENTRAL DE FRADES,LG. LEDOIRA S/N,FRADES,ESPAÑA,43.01612799999999,-8.244442099999999,SI
CENTRE DE JARDINERIA SILS,CAN BARRA S/N,SILS,ESPAÑA,41.8109004,2.7432858,SI
CENTRE DE JARDINERIA TERRA NOSTRA,"CTRA. N-150, KM.2.8",MONTCADA I REIXAC,ESPAÑA,41.4833531,2.1611027,SI
CENTRO DE BELLEZA LB,"PLAZA DA MINA, 11",TOMIÑO,ESPAÑA,41.9909081,-8.7451052,SI
CENTRO DE FORMACION ICA,C/. PORTELA Nº12 BJ,VIGO,ESPAÑA,42.2294408,-8.6996241,SI
CENTRO DE JARDINAGEM FONTE SANTA,SITIO DOS ALMAIJOES-FONTE SANTAQUARTEIRA,ALGARVE,PORTUGAL,37.0736446,-8.081709,SI
CENTRO DE JARDINERIA ARAGON,"AVDA. CANILLEJAS A VICALVARO, Nº10",MADRID,ESPAÑA,40.4267185,-3.6108161,SI
CENTRO DE JARDINERIA FLORANOVA,"CTRA. NACIONAL II, KM.674",MALGRAT DE MAR,ESPAÑA,41.640996,2.7227331,SI
CENTRO DE JARDINERIA LA LAJITA,"CTRA. GENERAL, A JANDIA KM.17 S/N",PAJAR,ESPAÑA,28.0514698,-14.3309661,SI
CENTRO DE JARDINERIA MANTENJARDIN,"AVDA.BUENOS AIRES, 121",OURENSE,ESPAÑA,42.3423816,-7.854475900000001,SI
CENTRO DE JARDINERIA OS TILOS,"C/.MONTOUTO, S/N.",TEO,ESPAÑA,42.8413094,-8.5439475,SI
CENTRO DE JARDINERIA TERRAS,"AVDA.DOCTOR OTERO ULLOA, 1 (SEIXO)",MARIN,ESPAÑA,42.3914848,-8.7020824,SI
CENTRO DE JARDINERIA VIDA,"C/TALLER, 3",OROPESA,ESPAÑA,39.9163332,-5.1747578,SI
CENTRO DE XARDINERIA A FONTE,CTRA.INTERNACIONAL GOIAN VILA NOVA DE CERVEIRA,GOYAN,ESPAÑA,41.9390406,-8.7441388,SI
CENTRO GALEGO DE INNOVACIÓN,"RUA ERMIDA, 187",OURENSE,ESPAÑA,42.3197301,-7.865914500000001,SI
CENTRO JARDINERIA ISMASOL,CAMINO MALPICA S/N,CARTAYA,ESPAÑA,37.2829635,-7.150746199999999,SI
CENTRO JARDINERIA LAS CELINDAS,"C/. CAMPOALBILLO, 14",TALAMANCA DEL JARAMA,ESPAÑA,40.7428246,-3.5092982,SI
CENTRO JARDINERIA LOS HELECHOS,"CAMINO DE MOSTOLES, S/N",LEGANES,ESPAÑA,40.3333918,-3.7863752,SI
CENTRO JARDINERIA Y OCIO LUIS MORENO,"AVENIDA DE SABIOTE, 3",CASTELLAR,ESPAÑA,38.2494266,-3.1376831,SI
"CENTROESTE RAÇOES, PLANTAS E AGROQUIMICOS","PRACETA DO ALPENDRE, 4",LISBOA,PORTUGAL,38.9699977,-9.3788413,SI
CEPAFLOR,C/. LAS ERAS Nº57 4ºD,CAUDETE,ESPAÑA,38.7074319,-0.9875974,SI
CERAMICAS Y VIVEROS LA VEGA,"CAMINO VIERO DE MALAGA, S/N",MALAGA,ESPAÑA,36.7522502,-4.4220444,SI
CERCICA CRL,RUA PRINCIPAL 320-LIVRAMENTO,ESTORIL,PORTUGAL,38.7123367,-9.372547899999999,SI
CEREALES CARRAL,"C/.MENDER BÚA, 8",CARRAL,ESPAÑA,43.2296573,-8.3575407,SI
CEREALES CASTRO,"LG.MESEGO, 51","CARBALLIÑO, (O)",ESPAÑA,42.4175629,-8.0881955,SI
CEREALES FERNANDEZ,"CALLE LANGULLO, 18",LAROUCO,ESPAÑA,42.34376400000001,-7.1626309,SI
CEREALES MARTINEZ,"C/ MESON, 8 - BAJO",PONTES SAMPAIO,ESPAÑA,42.3500403,-8.6054605,SI
CHARO,"C/ RAMON ALLER, 12",LALIN,ESPAÑA,42.6613201,-8.113526,SI
CHÂO BOM,"RUA DA TANOEIRA, CHAO BOM",SETUBAL,PORTUGAL,38.5259397,-8.844870499999999,SI
CHEESE CAKE PASTELARIA,"RUA CONDE DE VIZELA, Nº100",PORTO,PORTUGAL,41.1466898,-8.6135874,SI
CHIS GARDEN,"CALLE SAN VICENTE, Nº9",AVION,ESPAÑA,39.4580581,-0.383335,SI
CHITI (NO USAR),"TUDELA, 10",VALLADOLID,ESPAÑA,41.6475059,-4.7181943,SI
CHITI FLORES,"TUDELA, 10",VALLADOLID,ESPAÑA,41.6475059,-4.7181943,SI
CHORIMA ARTE FLORAL,"AVDA. DA ESTACION, 37",A MATANZA,ESPAÑA,42.4179916,-6.985298299999999,SI
CHUS ARTE FLORAL,"C/.RUA DA VILA,9",SERRA DE OUTES,ESPAÑA,42.842627,-8.9090042,SI
CHUS FLORES,"C/. NUEVA, 1",BENAVIDES DE ORBIGO,ESPAÑA,42.5023644,-5.8958768,SI
CIFP MONTECELO,AVD. MONTECELO 16,PONTEVEDRA,ESPAÑA,42.4266265,-8.6183972,SI
CINNIA TECH,"SERRANO, 21, 2º 1º",MADRID,ESPAÑA,40.4261416,-3.6880704,SI
CIRLENE APARECIDA,"C/DO CANEIRO, 1-3 ENTRESUELO",SARRIA (CASCO URBANO),ESPAÑA,43.3543092,-2.8426258,SI
CIVIS GLOBAL,"CTRA. DE MADRID, 150",VIGO,ESPAÑA,42.24059889999999,-8.7207268,SI
CLARA SOLLA,"SANTA MARTA, 2-BAJO",BAIONA,ESPAÑA,42.1140455,-8.841056499999999,SI
CLAUDETTE FLEURS,"RUA DE SAO PEDRO, 28RODAO",SEBAL,PORTUGAL,40.14015149999999,-8.5140923,SI
CLAUDIA ALVAREZ ALONSO,"C/MANSO,Nº 22  PISO 2 INTERIOR DERECHA",GIJON,ESPAÑA,43.5388536,-5.6472124,SI
CLAVELITOS,"PABLO MORILLO, 31",ZAMORA,ESPAÑA,41.5108637,-5.7389819,SI
CLICTIC,"C/ FERNÁNDEZ DE LOS RÍOS, Nº 68 - PLANTA 4ª PUERTA B",MADRID,ESPAÑA,40.4353668,-3.7124276,SI
CLIENTE IBERFLORA,"AVENIDA FIRES, 1",VALENCIA,ESPAÑA,39.5042412,-0.4288839,SI
CLUB CICLISTA O ROSAL,BAIXOS GARDERIA MUNICIPAL DE PIAS,O ROSAL,ESPAÑA,41.9372462,-8.836373,SI
CLUN AMES,"LG. PONTEMACEIRA, S/NAGRON",AMES,ESPAÑA,42.9025978,-8.6926952,SI
CLUN NEGREIRA,"LG.PONTEMACEIRA, S/N - AGROM",AMES,ESPAÑA,42.9038027,-8.6583677,SI
CLUN RIBADEO,"LG. PONTEMACEIRA, S/NAGRON",AMES,ESPAÑA,42.9025978,-8.6926952,SI
CLUN SANTA COMBA,"LG.PONTEMACEIRA, S/N-AGROM",AMES,ESPAÑA,42.9038027,-8.6583677,SI
CLUN VALXESTOSO,"LG PONTEMACEIRA, S/N - AGROM",AMES,ESPAÑA,42.9038027,-8.6583677,SI
CLUN-MELIDE,"LG.PONTEMACEIRA, S/N-AGROM",AMES,ESPAÑA,42.9038027,-8.6583677,SI
CLUN-ORDES,"LG.PONTEMACEIRA, S/N - AGROM",AMES,ESPAÑA,42.9038027,-8.6583677,SI
CLUN-PICOTA,"LG.PONTEMACEIRA, S/N-AGROM",AMES,ESPAÑA,42.9038027,-8.6583677,SI
CMVMC DE CAMOS,"CAMOS, 121RUA DOS PAZOS",NIGRAN,ESPAÑA,42.1425922,-8.772565,SI
CODIS PLANT,"GLORIETA PUERTA DEL HIERRO, S/N",MADRID,ESPAÑA,40.4621352,-3.7508694,SI
COFRADIA DULCE NOMBRE DE JESUS NAZARENO,"C/SANTA NONIA, S/N",LEON,ESPAÑA,42.5956393,-5.5718691,SI
COLEGIO DE TEBRA,A IGREXA S/N,TOMIÑO,ESPAÑA,42.0418622,-8.7346951,SI
COLEGIO MONTECASTELO,"PAZ PARDO, 84",VIGO,ESPAÑA,42.2147314,-8.693623299999999,SI
COLIBRI,"DEVESA, Nº 6 - MOSENDE",O PORRIÑO,ESPAÑA,42.1224789,-8.6591601,SI
"COLLAZO ALONSO, JOSE","SAN TELMO, SAA, 99, A3, CAMPOSANCOS",A GUARDA,ESPAÑA,41.8842538,-8.8620673,SI
COLOR POMELO ESTUDIO FLORAL,"CALLE ZUÑIGA, 13",VALLADOLID,ESPAÑA,41.65053,-4.730119999999999,SI
COLUGA - GRUPO SOAGA,AVDA. TERRA CHA N. 228,VILALBA,ESPAÑA,43.2935825,-7.6674277,SI
COMERCIAL A GRANXA 1983,"C/ COBIAN ROFFIGNAC, Nº7 - BAJO IZQUIERDA",PONTEVEDRA,ESPAÑA,42.4318453,-8.6421272,SI
COMERCIAL A LABRANZA (CALDAS),"C/JUAN FUENTES, 54 BAJO",CALDAS DE REIS (CASCO URBANO),ESPAÑA,42.604183,-8.6507011,SI
COMERCIAL AGRICOLA AGROCEE,"RUA ESTATUTO DE AUTONOMIA DE GALICIA, 16",CEE,ESPAÑA,42.9560694,-9.1919799,SI
COMERCIAL AGRICOLA ANTONIO,"RUA MEROUCES, Nº8",MONDARIZ,ESPAÑA,42.2341882,-8.4550111,SI
COMERCIAL AGRICOLA BENEDICTO,C/.PARROQUIA DE SALTO,VIMIANZO,ESPAÑA,43.1100475,-9.0324195,SI
COMERCIAL AGRICOLA GANADERA ALVARO BLANCO,"C/.CAMPO GRANDE, 6","RUA, (A)",ESPAÑA,42.3953504,-7.110063999999999,SI
COMERCIAL AGRICOLA PUGA,"RUA DA FEIRA NOVA, 24 BAJO",OURENSE,ESPAÑA,42.3476078,-7.8771997,SI
COMERCIAL AGRICOLA SALVATERRA,"C/RAIÑA DOÑA URRACA, 9 - BAIXO",SALVATERRA DO MIÑO,ESPAÑA,42.0842059,-8.4977813,SI
COMERCIAL AGRICOLA SEOANE MOREIRA,"C/ MEXICO, 2 - BAJO",PONTE CALDELAS,ESPAÑA,42.39031790000001,-8.50277,SI
COMERCIAL AGRICOLA SINDO,"C/.SAN BIEITO, 18",GONDOMAR,ESPAÑA,42.1110616,-8.7593462,SI
COMERCIAL AGRICOLA SINDO (NO USAR),"C/.SAN BIEITO, 18",GONDOMAR,ESPAÑA,42.1110616,-8.7593462,SI
COMERCIAL AGRICOLA VEDRA (GALICAMPO)  ( no usar ),SAN MIGUEL DE SARANDON,VEDRA,ESPAÑA,42.7649221,-8.458508,SI
COMERCIAL AGRICOLA VERDE MIÑOR,"C/ROSALIA DE CASTRO, 28",NIGRAN,ESPAÑA,42.1382661,-8.807486899999999,SI
COMERCIAL AGROALIMENTARIA,"ESPIRITU SANTO, 70 BAJO",COIRO (SAN SALVADOR),ESPAÑA,42.264185,-8.781991999999999,SI
COMERCIAL AGROSANTOS,"C/GÁNDARA, Nº37 - PONTE DE PORTO",CAMARIÑAS,ESPAÑA,43.1372366,-9.1149675,SI
COMERCIAL ALFONSO SOUTO,"C/ LUGO, 101",ARZUA,ESPAÑA,42.9290558,-8.155927799999999,SI
COMERCIAL AREAS,"LUGAR O PICOTO (AREAS), 29",PONTEAREAS,ESPAÑA,42.1802369,-8.5331129,SI
COMERCIAL ARRIBAS,"C/PINTOR LAXEIRO, 13",LALIN,ESPAÑA,42.6598824,-8.111545,SI
COMERCIAL AVILANDIA,"LUIS TABOADA, 27 PL.00 DCHA",VIGO,ESPAÑA,42.2401962,-8.7214481,SI
COMERCIAL BARCIELA,"ROCHA, 55",XINZO,ESPAÑA,42.0631102,-7.7259471,SI
COMERCIAL BASTOS,"CTRA.CAMPOSANCOS, 436SAN MIGUEL DE OIA",VIGO,ESPAÑA,42.1798194,-8.795138,SI
COMERCIAL BLANCO OJEA,NIGUEIROA S/N,RAIRIZ DE VEIGA,ESPAÑA,42.1272092,-7.849715000000001,SI
COMERCIAL BRION-TERRAS DE LABRANZA,"AVDA. DOS ANXELES, 43",BRION,ESPAÑA,42.8524606,-8.6768409,SI
COMERCIAL BRION-TERRAS DE LABRANZA,"AVDA AS BRAÑAS, Nº31 - PORTAL 2, 1C",NEGREIRA,ESPAÑA,42.9152469,-8.7354924,SI
COMERCIAL CACABELOS (YARA),"LUGAR VICHONA, 59",SANXENXO,ESPAÑA,42.416489,-8.8252502,SI
COMERCIAL CAJARAVILLE,"RUA DO CAMPELO, 1RAMALLOSA",TEO,ESPAÑA,42.792576,-8.5491847,SI
COMERCIAL CHAPELA,"C/ PASAN, 7",REDONDELA,ESPAÑA,42.2613823,-8.6716494,SI
COMERCIAL E.LIÑARES,"AVDA. BARCALA, 23 BAJO",NEGREIRA,ESPAÑA,42.9324252,-8.7679347,SI
COMERCIAL GARDIZ,"BARRIO MAYO VIASCON, 22",VIASCON,ESPAÑA,42.4845075,-8.5420616,SI
COMERCIAL PEDRA ALTA,"AVDA. BUEU, 21-BAIXO",CANGAS,ESPAÑA,42.2573853,-8.787482899999999,SI
COMERCIAL PIENSOS JUCAR,"C/MADRID, 6",CUELLAR,ESPAÑA,41.3988696,-4.314049199999999,SI
COMERCIAL PIRIS,EXCUSA Nº7BARRANTES,RIBADUMIA,ESPAÑA,42.5188711,-8.7512359,SI
COMERCIAL PRO-RURAL,"AVDA. TRECE DE ABRIL, S/NA PICOTA",MAZARICOS,ESPAÑA,42.9398887,-8.993744099999999,SI
COMERCIAL RAXO,"AVDA. OUTEIRO, 20 - PLANTA BAJA",RAXO (SAN GREGORIO),ESPAÑA,42.4054141,-8.753630099999999,SI
COMERCIAL RODRIGUEZ,"VILARCHAN, Nº51",PONTECALDELAS,ESPAÑA,42.4117053,-8.5616292,SI
COMERCIAL SAN ISIDRO SAVIÑAO,"C/ DOCTOR LOPEZ SUAREZ ESCARION, 8",NULL,ESPAÑA,43.0288827,-7.7902526,SI
COMERCIAL SIVAR,"CASAS NOVAS, 62",MOURENTE,ESPAÑA,42.4416455,-8.6154017,SI
COMERCIAL SONEIRA,"REQUIAN, 12 (CACHEIRAS)",TEO,ESPAÑA,42.8220467,-8.5613215,SI
COMERCIAL SUAREZ,"C/. AGRA DOS GREGOS, Nº41 BAJO B",CORUÑA (A),ESPAÑA,43.3637626,-8.4103923,SI
COMERCIAL TAK TAK,SAN JURJO BADIA 228,FIGO,ESPAÑA,42.2486951,-8.6971743,SI
COMERCIAL TRIGO,"MARRUA, Nº 9A",MOAÑA,ESPAÑA,42.3077373,-8.715083100000001,SI
COMERCIAL TRIGO (NO USAR),"MARRUA, Nº9 A",MOAÑA,ESPAÑA,42.3077373,-8.715083100000001,SI
COMERCIAL VETERINARIA AGROSALUD,AVENIDA BENIGNO QUIROGA No 10 - BAJO (PUEBLA DE SAN JULIAN),LANCARA,ESPAÑA,42.8667231,-7.4466418,SI
COMERCIAL VETERINARIA SEÑARIS,"RUA ARCAI Nº122 BAJO B
BEMBIBRE",VAL DO DUBRA,ESPAÑA,43.0270983,-8.6563511,SI
COMERCIAL VILANOVIÑA,LG. VILANOVIÑA Nº20B,PARADELA (MEIS),ESPAÑA,42.5459094,-8.7255612,SI
COMERCIAL VIRGINIA GONZALEZ,"POLIGONO LA CAMPANA , NAVE 32",NUEVA ANDALUCIA,ESPAÑA,36.4923752,-4.951609599999999,SI
COMPASSO DA ALMA,RUA AQUILINO RIBEIRO. 533,PAREDES DE COURA,PORTUGAL,41.9128718,-8.5570313,SI
COMPONENTES DE VEHICULOS DE GALICIA,"POLIGONO INDUSTRIAL AS GANDARAS, PARCELA 101",PORRIÑO (O),ESPAÑA,42.1271693,-8.6256883,SI
COMUNIDAD DE MONTES EN MAN COMUN DE COMESAÑA,"RUA SANIN, 54",VIGO,ESPAÑA,42.1986664,-8.748954,SI
COMUNIDAD PROPIETARIOS EPOBALSA,CALLE LORIENT 2-4,VIGO,ESPAÑA,42.2110417,-8.745431300000002,SI
COMUNIDADE DE MONTES COUSO,"LUGAR LAXES, S/N - CASA VECIÑAL",GONDOMAR,ESPAÑA,42.0846623,-8.7426152,SI
COMUNIDADE DE MONTES DE SOUTELO,LG. CASAL-SOUTELO,SALCEDA DE CASELAS,ESPAÑA,42.0839564,-8.5953926,SI
COMUNINADE DE MONTES PEITIEIROS,"PEROLEIRA, 33 PEITIEIROS",GONDOMAR,ESPAÑA,42.0986596,-8.7378527,SI
CON FLORES Y A LO LOCO,"CALLE ESGUEVA 15, 7ºA",VALLADOLID,ESPAÑA,41.654826,-4.7226637,SI
CONCELLO DE ALLARIZ,"PLAZA MAYOR, 1",ALLARIZ,ESPAÑA,42.18946649999999,-7.800552199999999,SI
CONCELLO DE AS NEVES,"PRAZA DA CRISTIANDADE, 1",AS NEVES,ESPAÑA,42.0878784,-8.414672999999999,SI
CONCELLO DE LALIN,"PLAZA DE GALICIA, 1",LALIN,ESPAÑA,42.6608843,-8.1164841,SI
CONCELLO DE MARIN,AVDA. DE OURENSE S/N,MARIN (CASCO URBANO),ESPAÑA,42.3914848,-8.7020824,SI
CONCELLO DE OROSO,"PRAZA DE ISAAC DIAZ PARDO, 1",SIGUEIRO,ESPAÑA,42.9687816,-8.4417533,SI
CONCELLO DE OURENSE,"PLZA.MAYOR, 1",OURENSE,ESPAÑA,42.41166219999999,-8.025478999999999,SI
CONCELLO DE SALVATERRA DE MIÑO,"PRAZA DA CONSTITUCION, Nº1",SALVATERRA DE MIÑO,ESPAÑA,42.0833836,-8.5002777,SI
CONCELLO DE TOMIÑO,"PRAZA DO SEIXO, Nº1",TOMIÑO,ESPAÑA,41.991444,-8.74353,SI
CONFITERIA LA FE,"C/. PERIODISTA ADEFLOR, 3",GIJON,ESPAÑA,43.5377121,-5.6622977,SI
CONFITERIA SILVIA,PLAZA CONSTITUCION,CEE,ESPAÑA,42.9549904,-9.188699699999999,SI
CONSTRUCCION DE LINO MALVAS,"MALVAS LA CRUZ, Nº60",TUI,ESPAÑA,42.04916060000001,-8.6466464,SI
CONSTRUCCIONES PORLAN,"CARRETERA DE SAKCEDA, KM.1,SN",SANGUIÑEDA (SANTA MARIA),ESPAÑA,36.5279542,-6.2909916,SI
CONSTRUCIONS DOMINGUEZ DANTAS,"C/ CARABELA PINTA, Nº 14 - 4º A-B",BAIONA,ESPAÑA,42.1203921,-8.851068699999999,SI
CONTADO ALMACEN CORUÑA (15000),1,GUISAMO,ESPAÑA,43.2997404,-8.2731154,SI
CONTADO ALMACEN SEVILLA,1,NULL,ESPAÑA,40.46366700000001,-3.74922,SI
CONTADO HORTICOLA ALMACEN 1,ALMACEN TOMIÑO HUERTA 1  BC,TOMIÑO,ESPAÑA,41.9924192,-8.7424885,SI
CONTADO HORTICOLA ALMACEN 2,ALMACEN TOMIÑO HUERTA 2 MD,TOMIÑO,ESPAÑA,41.9924192,-8.7424885,SI
CONTADO HORTICOLA ALMACEN 3,ALMACEN TOMIÑO HUERTA 3 Mñ,TOMIÑO,ESPAÑA,41.9924192,-8.7424885,SI
CONTADO HORTICOLA ALMACEN 4,"ALMACEN 4TOMIÑO
HUERTA 4 PT",NULL,ESPAÑA,40.46366700000001,-3.74922,SI
COOPERATIE ROYAL FLORA HOLLAND,P.O BOX 220,KB HONSELERSDIIJK P.O BOX 220,PAISES BAJOS (HOLANDA),52.132633,5.291265999999999,SI
COOPERATIVA AGRICOLA DE LOURES,"RUA DO FUNDAL, 45",PORTUGAL,PORTUGAL,39.39987199999999,-8.224454,SI
COOPERATIVA AGRICULTORES GIJON,"CTRA.CARBONERA Nº2230 P.I.ROCES, 5",GIJON,ESPAÑA,43.5162465,-5.6775614,SI
COOPERATIVA DEL CAMPO SAN MIGUEL DE PONTEAREAS,"RUA BARATILLO, S/N",PONTEAREAS,ESPAÑA,42.1749404,-8.5077181,SI
COOPERATIVA DEL CAMPO SANTA CRISTINA,"C/SAGUNTO, 34 - BAJO",VIGO,ESPAÑA,42.2291052,-8.702244499999999,SI
COOPERATIVA XALLAS,RUA COOPERATIVA Nº21,SANTA COMBA,ESPAÑA,43.0363257,-8.8180179,SI
COREBER,"LG COMIANS, 10",LARACHA (A),ESPAÑA,43.1901545,-8.570521000000001,SI
CORMA,"CAMI DEL MIG, 20",PREMIA DE DALT,ESPAÑA,41.5007008,2.3631826,SI
CORTIPLANTA,"ESTRADA NACIONAL, 125CEVADEIRAS",VILA NOVA DE CACELA,PORTUGAL,37.1735994,-7.5312397,SI
COSTA DE LONGARAS,"EMPALME DE MONCELOS, 1",ABADIN,ESPAÑA,43.28338129999999,-7.501772000000001,SI
COSTA-FLOR,"OBISPO ROMERO LEMA, 32-BAJO",BAIZO - ZAS,ESPAÑA,43.0988197,-8.915089000000002,SI
COTOVERDE,"AVDA.HABANA, 23 - OF6",OURENSE,ESPAÑA,42.3428256,-7.8655079,SI
COURA-FLOR,"RUA CONSELHEIRO MIGUEL DANTAS, 61",PAREDES DE COURA,PORTUGAL,41.9120546,-8.5607414,SI
COVEGA AGROPECUARIA,VILAR DE ARRIBA-A PEREIRA,SANTA COMBA,ESPAÑA,42.9884231,-8.8723241,SI
COZINHA VELHA,FAO DE JAES-ARCOCELO,PONTE DE LIMA,PORTUGAL,41.7622565,-8.5832339,SI
CPI DA CAÑIZA - EDIFICIO DE PRIMARIA,"CARBALLO DO MARCO, Nº20",A CAÑIZA,ESPAÑA,42.2159949,-8.281769,SI
CRASPE DIEM,"C/. MENENDEZ PELAYO, 21",GIJON,ESPAÑA,43.54020089999999,-5.6512587,SI
CREAFOGAR,"RUA DA BARROSA, 85 ROXOS",SANTIAGO DE COMPOSTELA,ESPAÑA,42.87944479999999,-8.6037292,SI
CREALEMOS SL,"LG CERNADELA (AL LADO CAPILLA), S/N",MONDARIZ,ESPAÑA,42.2446636,-8.4411917,SI
CRIAVERDE,RUA DO FIAL PASCOAL ABRAVESES,VISEU,PORTUGAL,40.6921406,-7.9260238,SI
CRISPLANTAS II,"RUA MONTE DA AZENHA, S/N",NULL,NULL,41.3478382,-8.5535392,SI
CRISPLANTAS JARDINERIA,"AVDA. DAS FLORES, 199",VERMOIN,PORTUGAL,41.4195639,-8.4438046,SI
CRISTALAR (NO USAR),"LUGAR EIREXE, 13",LINCORA - CHANTADA,ESPAÑA,42.5880943,-7.7469328,SI
CRISTIAN PROL REJO,"CAMIÑO DEVESA,  Nº11SAN JUAN",VIGO,ESPAÑA,42.2032356,-8.728603,SI
CRISTINA ALEXANDRA,GANDARELA TROVISCOSO,MONÇAO,PORTUGAL,42.07301210000001,-8.4461341,SI
CRISTINA BOUZADA,"C/. GONDOMAR,  Nº26",TOMIÑO,ESPAÑA,41.9915521,-8.743825,SI
CRISTINA HERMO LUSTRES,"LUGAR DE GRUNCHEIRAS, 58 - 1ºB",COIRO (SAN SALVADOR),ESPAÑA,42.2713398,-8.7687405,SI
CRISTINA MARTINEZ (TUI),"BERMUN, Nº5RANDUFE",TUI,ESPAÑA,42.04916060000001,-8.6466464,SI
CRISTINA PIÑEIRO FLORISTAS,"RECAMAN, 17",MARIN,ESPAÑA,42.3854414,-8.6951401,SI
CRISTINA ZAFRA,"C/. POLIDEPORTIVO, 10-1ºB",ALCAUDETE,ESPAÑA,37.5874141,-4.0789361,SI
CRUZ ROJA PONTEVEDRA,"C/PADRE GAITE, Nº 5",PONTEVEDRA,ESPAÑA,42.4325959,-8.6380666,SI
CTV,"RUA TRAS DA ESTIVADA, 9-11",TEO,ESPAÑA,42.8368974,-8.5464522,SI
CUECAR (AGROSHOP),"AVDA. CAMILO JOSE CELA, 39-BAJO",CUELLAR,ESPAÑA,41.3985291,-4.309088600000001,SI
CULTIUS BRUGAT,"CAN SUREDA, SERRA MAGRE S/N",RIUDARENES,ESPAÑA,41.8333573,2.7302016,SI
CULTIUS RAMON,CAMI DEL CRIST 1,VILASSAR DE MAR,ESPAÑA,41.4957439,2.3765561,SI
CULTIVOS AMADO,"LUGAR DE TOLLO, 41",GOYAN,ESPAÑA,41.9470138,-8.7728962,SI
CULTIVOS CASAITA,SANTA ROSA 2A,TOMIÑO,ESPAÑA,41.9797578,-8.7512143,SI
CUQUIÑA,"RUA SERRA, 5,  LOCAL 13-15",PONTEVEDRA,ESPAÑA,42.43431340000001,-8.643516,SI
CURIESES,"C/. DOMINE, 2",VILLALON DE CAMPOS,ESPAÑA,42.0988354,-5.0348832,SI
CURRO,CARRER LLOC NOU DE LA CORONA 8,TORRENT,ESPAÑA,39.4211422,-0.3815917,SI
CUSOVIAME,"DR MARTINEZ PARDO, 59 (DIRECCION ENTREGA)",TEIXEIRO,ESPAÑA,43.1381003,-8.035815,SI
D.F. FLORISTERIA,"SUERO DE QUIÑONES, 2 BAJO",LEON,ESPAÑA,42.6019247,-5.5755325,SI
DAFERCU,"LUGAR O PAZO, Nº 2B - TABORDA",TOMIÑO,ESPAÑA,42.0098403,-8.7195556,SI
DALMAU PANISELLO E HIJOS,CTRA. N. 340 KM. 1047.500,VINAROS,ESPAÑA,40.4811366,0.4487795,SI
DAMAJUANA GREENS AND BEANS,"C/. ECUADOR, 82 BAJO",VIGO,ESPAÑA,42.2318023,-8.715703,SI
DANI,"A PEDRA, 15",TOMIÑO,ESPAÑA,41.9954248,-8.731254,SI
DANI DOPAZO,"AREAS-ANTA, 37",TUI,ESPAÑA,42.0373007,-8.6651017,SI
DANZAS GREMIAIS DE POBO,PASEO MALECON S/N BAJO,AZOGUE-BETANZOS,ESPAÑA,43.2837626,-8.2103157,SI
DARA CREATIVA,"BARROTUMBIO, 29 DVINCIOS",GONDOMAR,ESPAÑA,42.1115469,-8.761324199999999,SI
DATCISIONS,"URZAIZ, 182 ENTR.1.PTA.IZQ",VIGO,ESPAÑA,42.2308988,-8.7026585,SI
DAVID SANZ (EMPLEADO),"C/.TRAVESIA DE VIGO 120, 1ºC",VIGO,ESPAÑA,42.2380338,-8.703301,SI
DAVINIA ALVAREZ,"RUA DE TOLLO, 7",GOIAN - TOMIÑO,ESPAÑA,41.9470138,-8.7728962,SI
DAVINIA BELTRAN ART & FLORS,"CTRA. TORTOSA, 10",TIVENYS,ESPAÑA,40.9071,0.51142,SI
DE ABREU FLORISTA,"ANTONIO PALACIOS, 46",PORRIÑO,ESPAÑA,42.160484,-8.6164494,SI
DE CORAÇAO,RUA PALMIRA MEIRELES Nº495 LJ E,LOUSADA,PORTUGAL,41.2751246,-8.2811848,SI
DE LA HOZ VIVEROS,"CTRA. PARACUELLOS A FUENTE EL SAZ KM.13,8",SAN SEBASTIAN DE LOS REYES,ESPAÑA,40.6352139,-3.5107894,SI
DE LA TORRE (ASTURIAS),"Calle Corín Tellado, 14, Bajo 2",GIJON,ESPAÑA,43.5276945,-5.643618,SI
DEACANTO FLORISTAS,"C/. CRISTO DEL AMOR, Nº5 LOCAL DRCHA.",ALCALA DE GUADAIRA,ESPAÑA,37.3386579,-5.8438614,SI
DECOFLOR,"PASEO DE LA CONCORDIA, 35",SOCUELLAMOS,ESPAÑA,39.2887113,-2.7956464,SI
DECOR COSTAVERDE,"AV.DOS CORREIOS, 545-APDO 142",ESMORIZ,PORTUGAL,40.9573344,-8.6332601,SI
DECORACIÖ FLORAL & EVENTS,CAMÍ DE SON LLUÏSO I D'EST TAST,PORRERES-MALLORCA,ESPAÑA,39.5148577,3.0238803,SI
DECORAPLANT,CALLE ISLA DE JAVA S/N POST NUM.56-58,ISLA DE JAVA,ESPAÑA,40.4914724,-3.685084599999999,SI
DECORARTE BODAS,"MAYON, 29",SOUTELO,ESPAÑA,42.5378483,-8.304053699999999,SI
DECOSUREVENTOS,AVDA. DE LA CRUZ DEL CAMPO Nº2 5ºD,SEVILLA,ESPAÑA,37.3847053,-5.9654779,SI
DEFENSA DEL CAMPO,"AVDA. LASALLE, 143",SALAMANCA,ESPAÑA,40.954653,-5.687292999999999,SI
DEFLOREX FLORISTAS,"BOULEVAR PICOS DE EUROPA, 21",SAN SEBASTIAN DE LOS REYES,ESPAÑA,40.555989,-3.6470403,SI
DEL AGRO SOCIEDAD COOPERATIVA,"POLIGONO INDUSTRIAL ALMUÑA, PARCELA 11				",LUARCA,ESPAÑA,43.5348403,-6.514549199999999,SI
DESCARO ESTUDIO FLORAL,GRIXO-LAMAS Nº6,MORAÑA,ESPAÑA,42.5973143,-8.5869171,SI
DESCONTO LOCO,"PLAZA DO CONCELLO, 8 - BAIXO",VIMIANZO,ESPAÑA,42.5547139,-8.9936411,SI
DEVA FLORISTAS.,"C/VALLE INCLAN, 34",CARBALLO,ESPAÑA,43.2153746,-8.6893199,SI
DE´ALCE FLORISTAS,"AVDA.ELADIO LORENZO, 6",MONDOÑEDO,ESPAÑA,43.4338191,-7.361119899999998,SI
DIAGNE SC,"AVDA. CELANOVA, Nº.117PLANTA 2, PUERTA AA VALENZA",BARBADAS,ESPAÑA,42.3117021,-7.8867847,SI
DIAPLANT,"RUA DE MEM GUNDAR, 550GONDAR",AMARANTE,PORTUGAL,41.25164849999999,-8.036847999999999,SI
DIEGO GONZALEZ (CON REC.),"CTRA. RIMOR, KM. 0,8",TORAL DE MERAYO,ESPAÑA,42.5045218,-6.6497812,SI
DIFLOR,"SAN ANTONIÑO, 16 BAJO",BARRO,ESPAÑA,42.4304855,-8.6377806,SI
DIFLOSAL,C/VISTA HERMOSA Nº30,SALAMANCA,ESPAÑA,41.0056198,-5.4965568,SI
DIPUTACION PROVINCIAL DE BADAJOZ,"C/FELIPE CHECA, 23",BADAJOZ,ESPAÑA,38.8796087,-6.9702772,SI
DISBEGAL,"AVDA. ALCALDE LAVADORES, 106",NULL,ESPAÑA,42.2180457,-8.6970336,SI
DISEÑO FLORAL DCARMEN,"AVDA. FONTIÑAS, 205 - BAJO",LUGO,ESPAÑA,43.0024184,-7.5449679,SI
DISTRIBUIDOR DE PLANTAS TORTOSA,AVDA. DE LA CONSTITUCION 50,MONFORTE DEL CID,ESPAÑA,37.9905924,-1.131147,SI
DISTRIFLOR,"RUA DA LAVOURA, Nº35",BEJA,PORTUGAL,38.021599,-7.8604717,SI
DIVAIN TEAM SL,CARRETERA ASTOGA-TI 34,SAN JUSTO DE LA VEGA,ESPAÑA,42.454303,-6.0090327,SI
DIXARDIN,"R/.REPUBLICA CHECA, 17-POL.DE COSTA VELLA",SANTIAGO DE COMPOSTELA,ESPAÑA,42.883282,-8.5437924,SI
DOBLE F IDEAS,"PASEO DEL RIO, 4 - CASA, 31 - URBANIZACION ENTRE BOMBERO 112",POZUELO DE ALARCON,ESPAÑA,40.421858,-3.8061027,SI
DOMINGO FLORISTERIA,"AVDA.CONDE CAMPOMANES, 11",TINEO,ESPAÑA,43.3341168,-6.415909699999999,SI
DOMINGOS DA SILVA ARAUJO,"RUA CANDIDO DA CUNHA, 100",BARCELOS,PORTUGAL,41.5330533,-8.6138783,SI
DON MACETON,"C/. CUEVAS DE PENARRUBIA, 20",LORA DE ESTEPA,ESPAÑA,37.2721575,-4.8028382,SI
DOSAC,"GENERAL ELORZA, 57 BAJO",OVIEDO,ESPAÑA,43.3666546,-5.846896099999999,SI
DROGO TIENDA,"AVDA. ANLLONS, 3",PONTECESO,ESPAÑA,43.2420975,-8.894644699999999,SI
DROGUERIA E FLORISTERIA ORENCIO,"CTRA.DE FANOI, 3",ABADIN (CASCO URBANO),ESPAÑA,43.3640075,-7.475941300000001,SI
DROGUERIA MARI CARMEN,"C/SANCHO CUARTO, 24",CARRION DE LOS CONDES,ESPAÑA,42.3373375,-4.6024326,SI
DULCE FLOR,"AVDA. CIUDAD DE ALMERIA, 54. 7º DERECHA",MURCIA,ESPAÑA,37.9758062,-1.1405111,SI
DULCE MARIA CARBAJAL GOMEZ,"CTRA.DE VILLADEMAR, S/N",VILLADEMAR,ESPAÑA,43.5585531,-6.1507098,SI
DVA,"RUA CETNRAL, 10 - BEMPOSTA",SANTA CATARINA DA SERRA,PORTUGAL,39.6730011,-8.6839485,SI
E NOVO CAMPO,"AV. DO BRASIL, 51 BAJO",SANTA COMBA,ESPAÑA,43.031881,-8.8081769,SI
FLORES PATRI,C/.MARQUES DE ARGULLES Nº5,RIBADESELLA,ESPAÑA,43.4627346,-5.0592561,SI
FLORES PRIS,"C/. CANDIDO FERNANDEZ RIESGO, Nº5 BAJO",SAMA DE LANGREO,ESPAÑA,43.2926545,-5.6772356,SI
FLORES REGALOS & COMPLEMENTOS LA FERIA,"LUGAR CORRAS, Nº5",SAN SADURNIÑO,ESPAÑA,43.5378127,-8.070004599999999,SI
FLORES RIAZA,CALLE JOSE MARTINEZ VELASCO 7,RIAZA,ESPAÑA,41.2793244,-3.47809,SI
FLORES RITA,C/.LA GUARDIA Nº2,TUI,ESPAÑA,42.0403966,-8.6495454,SI
FLORES SARA,"LA RAMBLA, KIOSKO Nº9",PALMA DE MALLORCA,ESPAÑA,39.573627,2.6495524,SI
FLORES SER,"AVDA.SAO TEOTONIO, EDIF.ATENAS - LOJA 19",VALENÇA,PORTUGAL,42.0246881,-8.6425999,SI
FLORES STRELICIA,"C/ RIBERO, 9 - BAJO",CARBALLIÑO (O),ESPAÑA,42.4316311,-8.077507599999999,SI
FLORES SUSANA,"CORDEIRO LUGAR BALLEAS, 8",VALGA,ESPAÑA,42.6908498,-8.6789615,SI
FLORES TEO,"C/LA MOTAM, 6 BAJO B",BENAVENTE,ESPAÑA,42.0007365,-5.6820197,SI
FLORES TRINIDAD,"LA RAMBLA, KIOSKO Nº11",PALMA DE MALLORCA,ESPAÑA,39.573627,2.6495524,SI
FLORES Y FRUTAS MARIA DEL CARMEN,"C/.BENIGNO QUIROGA BAJO, 1",PUEBLA DE SAN JULIAN,ESPAÑA,42.8636785,-7.4453183,SI
FLORES Y PLANTAS DE ANDALUCIA,POLIGONO SAN ROQUE - CALLE ARROYO DE ARJONILLA 41,ARJONILLA,ESPAÑA,37.99422043931143,-4.110445142006498,SI
FLORES Y PLANTAS JOSE PEREZ,CTRA. GENERAL Nº 51,HERAS - CANTABRIA,ESPAÑA,43.3749535,-4.5103894,SI
FLORES Y PLANTAS LOS OLIVOS (COLLADO VILLABA),"C/.ESCOFINA,48C.CIAL. LOS OLIVOS P.P 29",COLLADO VILLALBA,ESPAÑA,40.6266062,-4.0191663,SI
FLORES Y PLANTAS MARIFLOR,"AVDA. DE EUSKADI, 81",BARAKALDO,ESPAÑA,43.2838321,-2.9948677,SI
FLORES Y PLANTAS SARAY,C/.FEDERICO GARCIA LORCA S/N(CENTRO COMERCIAL LOCAL 14),MEJORADA DEL CAMPO,ESPAÑA,40.3984757,-3.4854276,SI
FLORESOL,"JOSE ALBI POETA, 4 ESCALERA G, PISO 1",VALENCIA,ESPAÑA,39.4962063,-0.3915185,SI
FLORESTA,"AVDA. DE PONTEVEDRA, 42",MONTERROSO,ESPAÑA,42.7822647,-7.8935131,SI
FLORESTA FLORES,"SAN MARTIÑO, 25F - BORREIROS",GONDOMAR,ESPAÑA,42.1053674,-8.8118694,SI
FLORIARTE,AVDA. CAPITAO SALGUEIRO - MAIA,MELGAÇO,PORTUGAL,42.1150676,-8.259597399999999,SI
FLORICOLA LA ROSALEDA,CHIMBORAZO 705 Y PAMPITE,QUITO,ECUADOR,-0.1978466,-78.4313335,SI
FLORICULTURA CASTILLA,"C/.LEOPOLDO ALAS CLARIN, 2",ZAMORA,ESPAÑA,41.506767,-5.7399379,SI
FLORICULTURA TARRIO,"SAN SALVADOR, S/N",MELIDE,ESPAÑA,42.9128344,-8.024700500000002,SI
FLORICULTURA TOXAL,"TRANSVERSAL JOSE ANTONIO LOMBA CAMIÑA, S/N",GUARDA (A),ESPAÑA,41.9116106,-8.8589698,SI
FLORILIPA (NO USAR),"C/ AVDA. ZAMORA, 122",OURENSE,ESPAÑA,42.3224874,-7.862389299999999,SI
FLORIMAR,"AVDA.LUGO, 21-BAJO-ARCA","PINO, (O)",ESPAÑA,42.9101929,-8.3582354,SI
FLORIMEX COIMBRA,TRAV.JOAQUIM LOPES(PINTOR) 81 - APARTADO 70,VALADARES-VILAR DE PARAISO,PORTUGAL,41.1113912,-8.6217288,SI
FLORIMEX FARO,"TRAV.JOAQUIM LOPES (PINTOR), 81 - APARTADO, 70",VALADARES-VILAR DO PARAISO,PORTUGAL,41.1113912,-8.6217288,SI
FLORISTA AMOR MEU,"RUA DE ANGOLA, Nº 6 1ºDTOCONCELLO DE OEIRAS",LINDA VELHA,PORTUGAL,38.7681291,-9.302672,SI
FLORISTA DA MATRIZ,"RUA DA MATRIZ, 15",PONTE DE LIMA,PORTUGAL,41.7679098,-8.5843402,SI
FLORISTA DA RUA BANDEIRA,"RUA DA BANDEIRA, 78",VIANA DO CASTELO,PORTUGAL,41.6948025,-8.8267574,SI
FLORISTA JARDIM,"RUA RUI FALEIRO, 78",COVILHA,PORTUGAL,40.2820212,-7.5048067,SI
FLORISTA LA FLOR,AVENIDA DOUTOR TITO FONTESVIANA DO CASTELO,VALENÇA,PORTUGAL,42.0275909,-8.6376805,SI
FLORISTA MADRE SELVA,"SANTUARIO, 11,12,15",VALLADOLID,ESPAÑA,41.6498461,-4.722375599999999,SI
FLORISTA PREDILETA,RUA FERNANDO GUSMÂO Nº8 6ºBFREGUESIA SANTA CLARA,LISBOA,ESPAÑA,38.7893752,-9.1548895,SI
FLORISTERIA,"SAN BERNARDO, 110-2º IZQ",MADRID,ESPAÑA,40.4309022,-3.7050201,SI
FLORISTERIA A CASIÑA,ENTRADA DEL CEMENTERIO,GUARDA (A),ESPAÑA,40.46366700000001,-3.74922,SI
FLORISTERIA ABRAMAR,"AVD AURELIANO FERREIRO, 53 - BAJO",MACEDA,ESPAÑA,42.2710566,-7.6507075,SI
FLORISTERIA ABRAMAR,"A ROCHA, Nº 10 - ATIOS",O PORRIÑO,ESPAÑA,42.1526006,-8.608745899999999,SI
FLORISTERIA ABRAMAR (NO USAR),"C/ AURELIANO FERREIRO, 53",MACEDA,ESPAÑA,42.2710566,-7.6507075,SI
FLORISTERIA ABRIL,"AVDA.CRUZ DE LOS PAJARES, 5",MIAJADAS,ESPAÑA,39.1495979,-5.910821299999999,SI
FLORISTERIA ABRIL,"C/LAGOS, 34 - BAIXO",O ROSAL,ESPAÑA,41.9211659,-8.8432019,SI
FLORISTERIA ADA,"C/. CISNEROS, 39",ALCORCON,ESPAÑA,40.3448913,-3.8323883,SI
FLORISTERIA ADELINA,"ALTO DO VISO, 28",REDONDELA,ESPAÑA,42.3226527,-8.5897243,SI
FLORISTERIA ADELINA (NO USAR),"ALTO DO VISO, 28",REDONDELA,ESPAÑA,42.3226527,-8.5897243,SI
FLORISTERIA AGAPANTHUS,"CALLE CAMINO SAN RAFAEL, 23",MALAGA,ESPAÑA,36.7098245,-4.4439699,SI
FLORISTERIA AGARIMO,"C/CELSO EMILIO FERREIRO,42",ORENSE,ESPAÑA,42.3422356,-7.8598266,SI
FLORISTERIA AGUSTIN,CAMINO DE ALBADALEJO 189-191,JEREZ DE LA FRONTERA,ESPAÑA,36.686804,-6.1011878,SI
FLORISTERIA AIDY,"CALLE MAYOR, 11",SANTIBAÑEZ DE VIDIRALES,ESPAÑA,42.0752596,-6.014468,SI
FLORISTERIA ALAGO´S,"CTRA. DE CATABOIS, 233-235 - BAJO IZQ.",FERROL,ESPAÑA,43.49635689999999,-8.230297799999999,SI
FLORISTERIA ALBA,"C/EMILIA PARDO BAZAN, 1 - STA. CRUZ",OLEIROS,ESPAÑA,43.3641044,-8.406964799999999,SI
FLORISTERIA ALBA,"CTRA.CATABOI,602",FERROL,ESPAÑA,43.5088216,-8.2199479,SI
FLORISTERIA ALECRIN,"C/ ARCAY, 76 - BAJO",VAL DE DUBRA,ESPAÑA,43.0281495,-8.6565786,SI
FLORISTERIA ALECRIN (VAL DO DUBRA),"RUA ARCAY, 71 BAJOBEMBIBRE",VAL DO DUBRA,ESPAÑA,43.02503960000001,-8.656044,SI
FLORISTERIA ALICIA,"C/ARQUITECTO MODESTO FADOLLA, 9-BLQ, 6-1ºB",GRANADA,ESPAÑA,37.1824607,-3.601167599999999,SI
FLORISTERIA ALLER,"C/ENRIQUES SANCHEZ, 2",MOREDA DE ALLER,ESPAÑA,43.168551,-5.7377721,SI
FLORISTERIA ALMUDENA,"PLAZA DE TORRES BELLAS,4",ALCORCON,ESPAÑA,40.3488739,-3.8208109,SI
FLORISTERIA ALVAREZ,"C/.MARIN Y ROJO, Nº7",CANTALAPIEDRA,ESPAÑA,41.1264712,-5.1844841,SI
FLORISTERIA AMELIA,"C/ CORRERIA, 65.",ALMACEDA,ESPAÑA,43.19394399999999,-3.1956175,SI
FLORISTERIA ANA,"CALLE GRAN CAPITAN, 9 - LOCAL1",GRANADA,ESPAÑA,37.1784273,-3.603718799999999,SI
FLORISTERIA ANA,"CARDENAL, 53",MONFORTE DE LEMOS,ESPAÑA,42.521805,-7.5150368,SI
FLORISTERIA ANA,"AVDA. DE SALAMANCA, 55 BAJO",CIUDAD RODRIGO,ESPAÑA,40.6049059,-6.5283262,SI
FLORISTERIA ANA (MADRID),"CALLE PRADO REAL, 1 1ºA",SOTO REAL,ESPAÑA,40.7519287,-3.7832564,SI
FLORISTERIA ANDALUCIA,"VIRGEN BIEN APARECIDA, 1",MALAGA,ESPAÑA,36.7188307,-4.4414622,SI
FLORISTERIA ANDREA,AVDA. FILIBERTO VILLALOBOS Nº71,SALAMANCA,ESPAÑA,40.9693189,-5.6733173,SI
FLORISTERIA ANEMONA,"C/VENEZUELA, 43 BAJO",FERROL,ESPAÑA,43.4892647,-8.2194487,SI
FLORISTERIA ANGELITA CEMENTERIO,CEMENTERIO DE SAN FERNANDO,SEVILLA,ESPAÑA,37.4157714,-5.982498,SI
FLORISTERIA ANTONIA BUENO,"CALLE CUEVA DE MENGA, 3 - BQ 12 - LOCAL 5",SEVILLA,ESPAÑA,37.3998204,-5.9425672,SI
FLORISTERIA ANTONIO Y MIGUEL,"C/SANTIAGO, 5",ZAMORA,ESPAÑA,41.5053644,-5.7443768,SI
FLORISTERIA ANTOXO,"C/.PAULINO FREIRE, 7",VIGO,ESPAÑA,42.2238637,-8.7528422,SI
FLORISTERIA ANXO,"VILLANUEVA, 27",A CAÑIZA,ESPAÑA,42.2121211,-8.2729041,SI
FLORISTERIA ARACELI,"PASEO DE LA SABICA, 70 LOCAL 4",GRANADA,ESPAÑA,37.1706327,-3.578959,SI
FLORISTERIA ARACELI(SEVILLA),"CALLE VIRGEN DE ARACELI, 5",SEVILLA,ESPAÑA,37.3742418,-5.9972664,SI
FLORISTERIA ARALIA,"AVDA. DE ESPAÑA, 175",DOS HERMANAS,ESPAÑA,37.284013,-5.915241700000001,SI
FLORISTERIA ARALIA,"IRMANS SARAIBA, 14",VIGO,ESPAÑA,42.2164363,-8.7408185,SI
FLORISTERIA ARALIA(ALCALA),"AVDA.ANTONIO MAIRENA, 18",ALCALA DE GUADAIRA,ESPAÑA,37.3372196,-5.8398375,SI
FLORISTERIA ARCO IRIS,"CASTOR SANCHEZ - LOCAL, 8",VILLAGARCIA,ESPAÑA,42.5978059,-8.7647503,SI
FLORISTERIA ARGENTINA,"C/FRAY ROSENDO SALVADO, 24",SANTIAGO DE COMPOSTELA,ESPAÑA,42.87277659999999,-8.5512803,SI
FLORISTERIA ARIES,AVDA.LOS MANANTIALES S/N HIPERSOL,TORREMOLINOS,ESPAÑA,36.6282264,-4.5038517,SI
FLORISTERIA ARTE FLORAL,"CALLE SAGRADA FAMILIA, 22-BAJO",GRANADA,ESPAÑA,37.1899551,-3.6255423,SI
FLORISTERIA ARTEMIS,"AVDA PABLO RUIZ PICASSO EDIF.SAN ANTONIO LOCAL, 3",SAN PEDRO DE ALCANTARA,ESPAÑA,36.4886099,-4.9909402,SI
FLORISTERIA ARTEMISA,"C/.IRYDA, 5-BAJO",ESTRADA (A),ESPAÑA,40.46366700000001,-3.74922,SI
FLORISTERIA ASTERFLOR,"PLAZA DE COLON, 21",CORDOBA,ESPAÑA,37.8914638,-4.778323299999999,SI
FLORISTERIA ASTERFLOR,"PLAZA DE COLON, 21",CORDOBA,ESPAÑA,37.8914638,-4.778323299999999,SI
FLORISTERIA ATRIO ALBITOS,"PLAZA DE ABASTOS, 1",ORENSE,ESPAÑA,42.33578929999999,-7.863880999999998,SI
FLORISTERIA ATRIUM,"C/MONTERO RIOS, 80",LUGO,ESPAÑA,43.0136073,-7.5507715,SI
FLORISTERIA AZAHAR SEVILLA,"CALLE OCHO DE MARZO, 10",SEVILLA,ESPAÑA,37.3688339,-5.9528561,SI
FLORISTERIA AZALEA,AV.DO CONCELLO S/N,FENE,ESPAÑA,43.475298,-8.1662448,SI
FLORISTERIA BAMBU,"C/.ANDRES MURUAIS, Nº5 BAJO",PONTEVEDRA,ESPAÑA,42.4290524,-8.6438018,SI
FLORISTERIA BAMBU (NO USAR),"C/ ANDRES MURUAIS, 5 - BAJO",PONTEVEDRA,ESPAÑA,42.4292479,-8.6436269,SI
FLORISTERIA BARDON,"AVDA CASTILLO, 4",PONFERRADA,ESPAÑA,42.54903119999999,-6.5833205,SI
FLORISTERIA BEATRIZ,"RUA PESCADERÍA VELLA, Nº7",MUROS,ESPAÑA,42.774785,-9.0588791,SI
FLORISTERIA BEATRIZ (NO USAR),"C/. CALVO SOTELO, S/N",MUROS,ESPAÑA,42.8073676,-9.0460525,SI
FLORISTERIA BECEDAS CACERES-NO USAR,"C/. AMBERES, 1 BAJO",CACERES,ESPAÑA,39.4685207,-6.3852582,SI
FLORISTERIA BEGOÑA,RODRIGO DE MENDOZA Nº9,VILAGARCIA,ESPAÑA,42.5925935,-8.7626875,SI
FLORISTERIA BELEN,"RUA ALVARELLOS BERROCAL,10 - PL. BAJA",CEE,ESPAÑA,42.9557617,-9.188871899999999,SI
FLORISTERIA BELLIDO,"CALLE DOCTOR EDUARDO ARROYO, 6",JAEN,ESPAÑA,37.767664,-3.7905554,SI
FLORISTERIA BENITEZ,"CALLE CANALEJAS, 23",ALJARAQUE,ESPAÑA,37.2692253,-7.0245259,SI
FLORISTERIA BIANCA,"C/. JOSE MATO (MEDICO), 18-FRAGOSO",VIGO,ESPAÑA,42.0981517,-8.5563474,SI
FLORISTERIA BIO,"C/.MIGUEL UNAMUNO, S/N",VALLADOLID,ESPAÑA,41.6112774,-4.7526816,SI
FLORISTERIA BIO,"C/MIGUEL UNAMUNO, S/N",VALLADOLID,ESPAÑA,41.6112774,-4.7526816,SI
FLORISTERIA BLANCA FLORISTA,"AVDA.LUIS BUÑUEL, 14-C.C. LA ROSALEDA",MALAGA,ESPAÑA,36.73299069999999,-4.425843299999999,SI
FLORISTERIA BLUMEN,"CALLE NUEVA, 15",MAIRENA DEL ALJARAFE,ESPAÑA,37.3445159,-6.0653801,SI
FLORISTERIA BONSAI,"AVDA. CASTELAO, 28",PUENTEAREAS,ESPAÑA,42.173367,-8.5087382,SI
FLORISTERIA BONSAY,"AVDA. DE SANTIAGO, 14",OURENSE,ESPAÑA,42.35087000000001,-7.865869999999999,SI
FLORISTERIA BROMELIA,"RUA CONDES DE ANDRADE, Nº 1  -  LOCAL 1  ESQUINA",CULLEREDO,ESPAÑA,43.3159687,-8.3832785,SI
FLORISTERIA BRUNIA,"CALLE SALADO, 11",SEVILLA,ESPAÑA,37.378859,-6.001063299999999,SI
FLORISTERIA BRUNIA,"C/.ALVAREZ SOTOMAIOR, 25 - BAJO",CARBALLO,ESPAÑA,43.2125079,-8.6865573,SI
FLORISTERIA BUXO,"AVDA. SOLAINA,23-STA.CECILIA",NARON,ESPAÑA,43.502086,-8.2009586,SI
FLORISTERIA CA (NO USAR),"AVDA. BERGANTIÑOS, 49 - PAYOSACO",LARACHA,ESPAÑA,43.2552763,-8.553792999999999,SI
FLORISTERIA CALA,"PADILLA,7",VALLADOLID,ESPAÑA,41.657229,-4.7213723,SI
FLORISTERIA CALA,"CTRA.DE CASTILLA, 867 (JUBIA)",NARON,ESPAÑA,43.5165611,-8.1590685,SI
FLORISTERIA CALA,"C/. PADILLA, 7",VALLADOLID,ESPAÑA,41.657229,-4.7213723,SI
FLORISTERIA CALA VORO,"CL.ALQUERIAS, 39 B",VALENCIA,ESPAÑA,39.4015695,-0.3988318,SI
FLORISTERIA CALAS,"CALLE JOAQUIN TENA ARTIGAS, 15",CASTUERA,ESPAÑA,38.7230743,-5.5477216,SI
FLORISTERIA CALO,"RUA ORILLAMAR, 39","CORUÑA, (A)",ESPAÑA,43.3766655,-8.396793599999999,SI
FLORISTERIA CAMELIA (VERIN),"C/. ROSALIA DE CASTRO, 1",VERIN,ESPAÑA,41.9423919,-7.4344024,SI
FLORISTERIA CAMPOS,"C/. MARIA PURIFICACION NEIRA GONZALEZ, 35",OVIEDO,ESPAÑA,43.3626049,-5.8652406,SI
FLORISTERIA CARMEN,"CALVO SOTELO, Nº 20",VALDERAS,ESPAÑA,42.0780315,-5.4429909,SI
FLORISTERIA CARMEN,"AUGUSTO GONZALEZ BESADA, 5",PONTECALDELAS,ESPAÑA,42.3895252,-8.5018622,SI
FLORISTERIA CARMIÑA,"C/.VENEZUELA, Nº61",SILLEDA,ESPAÑA,42.7020616,-8.2445422,SI
FLORISTERIA CARMIÑA (CARBALLIÑO),"C/ BRASIL, 6",CARBALLIÑO,ESPAÑA,42.4316551,-8.0775086,SI
FLORISTERIA CAROLINA LEON,"CALLE TALLINN, 12 POLIGONO TECNOCORDOBA",CORDOBA,ESPAÑA,37.9005961,-4.7331062,SI
FLORISTERIA CARVI,"AVDA. DE VILARIÑO, 118",CAMBADOS,ESPAÑA,42.5163765,-8.80532,SI
FLORISTERIA CERAFLOR,HUELVA,HUELVA,ESPAÑA,37.2619585,-6.9427327,SI
FLORISTERIA CHARI(CEMENTERIO),CEMENTERIO DE SAN FERNANDO,SEVILLA,ESPAÑA,37.4157714,-5.982498,SI
FLORISTERIA CHUCHAMEL,"AVDA.XOAN CARLOS I, 18 - O BURGO",CULLEREDO,ESPAÑA,43.31859,-8.366,SI
FLORISTERIA CHURIMA,"AVDA.FINISTERRE, ED.STA LUCIA S/N",LARACHA,ESPAÑA,43.2482528,-8.5830216,SI
FLORISTERIA CIPRI,CTRA. N.340 - KM.1042,BENICARLO,ESPAÑA,40.4104426,0.3971352,SI
FLORISTERIA CLARINES,AVD. ANDALUCIA 35,BEAS,ESPAÑA,37.4232938,-6.7974213,SI
FLORISTERIA CONDADO,"C/.RIAL DOPAZO, 4C",ARBO,ESPAÑA,42.1111842,-8.3124565,SI
FLORISTERIA DAPFNE,"C/NICARAGUA, 2",LA CORUÑA,ESPAÑA,43.3622812,-8.408219899999999,SI
FLORISTERIA DAVID,"C/CIUDAD DE CARLET, 9",SEVILLA,ESPAÑA,37.4109613,-5.9259982,SI
FLORISTERIA DAVID HORMIGO,"CALLE DOCTOR OCHOA, 18",FUENGIROLA,ESPAÑA,36.5414373,-4.6280472,SI
FLORISTERIA DECOFLOR,"C/. AGABITO LLOBET, 4",IBIZA,ESPAÑA,38.9084656,1.4244323,SI
FLORISTERIA DECOFLOR,"HERRERIA, 57",CALDAS DE REIS,ESPAÑA,42.6041774,-8.642126,SI
FLORISTERIA DEL TORO,CAMINO DEL BOSQUE Nº 30 - BAJO IZQ.,A CORUÑA,ESPAÑA,43.3456082,-8.422117199999999,SI
FLORISTERIA DELIRIO,"AVDA. FRANCISCO SUAREZ SALGADO, Nº2 BJOLA PICOTA",MAZARICOS,ESPAÑA,42.9398887,-8.993744099999999,SI
FLORISTERIA DETALLOS MARTA,"CALLE ANTONIO GOMEZ MILLAN, 23",GELVES,ESPAÑA,37.3233969,-6.0283566,SI
FLORISTERIA DIAMANTES,"C/ ORENSE, 85 - BAJO",PALAS DE REI,ESPAÑA,42.8697381,-7.8688966,SI
FLORISTERIA DIANA,"PLAZA MAYOR, 13",TAMAMES,ESPAÑA,40.6584643,-6.1062878,SI
FLORISTERIA DIGNA,"MONTEMOGOS, 154C-BELUSO",BUEU,ESPAÑA,42.3264113,-8.8083727,SI
FLORISTERIA DIVINA,"C/ROSALIA DE CASTRO, 19 BAJO",MONTERROSO (CASCO URBANO),ESPAÑA,42.79358010000001,-7.8342687,SI
FLORISTERIA DOMINGUEZ,"C/TARRAGONA, 66",SEVILLA,ESPAÑA,37.37519270000001,-5.9578223,SI
FLORISTERIA DORI (GRANADA),CALLE AVDA. DE CADIZ S/N,ZAIDIN,ESPAÑA,37.1563541,-3.6030728,SI
FLORISTERIA DRACENA,"AVDA. DE ZAMORA, 148 BAJO",OURENSE,ESPAÑA,42.3203944,-7.8625545,SI
FLORISTERIA DRAYTO,"C/.JOSE RECOJO, 5",REDONDELA,ESPAÑA,37.2199341,-7.2712179,SI
FLORISTERIA EDEN,"C/PARROCO JOSE OTERO, 1",VIGO,ESPAÑA,42.2350778,-8.7082456,SI
FLORISTERIA EL ACEBUCHE,"AVDA. SANTA MARTA, S/N",HUELVA,ESPAÑA,37.2751878,-6.936741,SI
FLORISTERIA EL ATELIER,PLAZA DEL MERCADO NUMERO 2,LA FUENTE DE SAN ESTEBAN,ESPAÑA,40.8006156,-6.2575091,SI
FLORISTERIA EL BALADRE,"C/. SAN JAUME, 29 2ª",PEGO,ESPAÑA,38.8430431,-0.1186556,SI
FLORISTERIA EL CAPRICHO,"CALLE SEVILLA, 1",MALAGA,ESPAÑA,36.7238232,-4.4297585,SI
FLORISTERIA EL EDEN,JOSE ZORRILLA 47,SEGOVIA,ESPAÑA,40.941645,-4.1155015,SI
FLORISTERIA EL JARDIN DE LA CARIDAD(Sevilla),C/ADRIANO 25,SEVILLA,ESPAÑA,37.3864664,-5.9980278,SI
FLORISTERIA EL JARDIN DE LUCIA,C/. GUILLEN DE ROHAN Nº3 1ºA,TORDESILLAS,ESPAÑA,41.5046363,-5.0007637,SI
FLORISTERIA EL KIOSCO DE CAROLINA,"C/. VALLE DE LECRIN, LOCAL 7",GRANADA,ESPAÑA,37.1569327,-3.578355,SI
FLORISTERIA EL PARQUE,AVDA. BRUSELAS 45,MADRID,ESPAÑA,40.4375292,-3.6640252,SI
FLORISTERIA EL PINILLO,"AVDA. DE LA DIPUTACIÓN, 39",EL PUERTO DE SANTA MARIA,ESPAÑA,36.6108992,-6.2169228,SI
FLORISTERIA EL ROMERO,AVDA. DE ESPAÑA 8 BAJO,PRIEGO DE CORDOBA,ESPAÑA,37.439168,-4.2032535,SI
FLORISTERIA EL TREBOL (MADRID),"C/. LA HUERTA, 1 ESCALERA IZQ. 1-3",TORREJON DE ARDOZ,ESPAÑA,40.4606813,-3.480992,SI
FLORISTERIA ELENA,"C/ CAPILLA, 58",CARREIRA (RIVEIRA),ESPAÑA,42.5494828,-9.0099118,SI
FLORISTERIA EMILIO,"CALLE SAN JOSE BAJA, 37",GRANADA,ESPAÑA,37.1704457,-3.6011965,SI
FLORISTERIA ENCARNITA,AVDA. DE LIBIA S/N,CORBOBA,ESPAÑA,37.8905936,-4.7588899,SI
FLORISTERIA ENCAROMA,"AVDA. DE ESPAÑA, 82-B",DOS HERMANAS,ESPAÑA,37.2912281,-5.9197029,SI
FLORISTERIA ENCINA,"C/. EL TESO, 45",TORAL DE LOS VALOS,ESPAÑA,40.46366700000001,-3.74922,SI
FLORISTERIA EVA ARQUES COLL,"AVDA. LIBERTAD, 14 LOCAL 1",MOLLET DEL VALLES,ESPAÑA,41.5411881,2.2188527,SI
FLORISTERIA FANY,"RUA DOCTOR FERNANDEZ DE VEGA, Nº 18 - BAJO",PONTEAREAS,ESPAÑA,42.1750387,-8.5052553,SI
FLORISTERIA FAUNA,"SAN FROILAN, 4",LUGO,ESPAÑA,43.0142648,-7.5584817,SI
FLORISTERIA FAUNA FLORA,"C/ PAZO FONTENLA, 48",BUEU (CASCO URBANO),ESPAÑA,42.3258871,-8.784736900000002,SI
FLORISTERIA FERNANDO,"ISIDORO DE LA CIERVA, 10",MURCIA,ESPAÑA,37.9429284,-1.1302832,SI
FLORISTERIA FERNANDO JD,"CALLE SANTA MARIA MAGDALENA, 47",DOS HERMANAS,ESPAÑA,37.282902,-5.9245211,SI
FLORISTERIA FICUS,"C/. SAN PAYO, Nº10 BAJO-EL PUENTE",OURENSE,ESPAÑA,42.34975379999999,-7.874424299999999,SI
FLORISTERIA FINI,"C/CAMBADOS, 1PARKING ALCAMPO COYA",VIGO,ESPAÑA,42.2194219,-8.745047699999999,SI
FLORISTERIA FLOR DE JARA,"AVENIDA DE LA VERA, 43",VILLANUEVA DE LA VERA,ESPAÑA,40.13026139999999,-5.4604419,SI
FLORISTERIA FLOR REGALO,"C. GABRIEL ZAMORA, 15 - 17",ANDUJAR,ESPAÑA,38.0412991,-4.0542862,SI
FLORISTERIA FLOR REGALO PUERTAS,"C/. HUERTOS, 10",PINOS PUENTE,ESPAÑA,37.2497934,-3.7501744,SI
FLORISTERIA FLOREARTE,"C/ARENAL,4",PORTONOVO-SANXENXO,ESPAÑA,42.3938575,-8.8288728,SI
FLORISTERIA FLOREMA,"C/TOURAL, 28",XINZO DE LIMIA,ESPAÑA,42.061262,-7.728215199999999,SI
FLORISTERIA FLORES YOLI,"CALLE MORON, 26",SEVILLA,ESPAÑA,37.3692257,-5.9744935,SI
FLORISTERIA FLOREVER,"C/. LOS TOREROS, 5",PUERTO DE SANTA MARIA (EL),ESPAÑA,36.5965228,-6.237344299999999,SI
FLORISTERIA FLORMANIA,"C/FRAY CARRER FRA JUNIPER SERRA, 9",INCA,ESPAÑA,39.7181703,2.912793,SI
FLORISTERIA FOTOSINTESIS.,"C/.ALONSO PARIS, Nº5-3ºC",PALENCIA,ESPAÑA,42.017286,-4.528937,SI
FLORISTERIA FRAN DE UTRERA,AVDA.DOLORES Y BARUZI-BLOQUE 5 PORTAL A SEGUNDO D,UTRETA,ESPAÑA,37.1848134,-5.7795147,SI
FLORISTERIA GALLARDO,AVDA. DE LA RIA MERCADO DEL CARMEN PUESTO 171,HUELVA,ESPAÑA,37.254809,-6.95576,SI
FLORISTERIA GEORGES,"JESUS DE SAN ANTONIO, 8",COSLADA,ESPAÑA,40.4249185,-3.5405143,SI
FLORISTERIA GLOBOS SEVILLA,"CALLE CASTILLO DE ALCALA DE GIADAIRA, 2",SEVILLA,ESPAÑA,37.3616374,-5.9777798,SI
FLORISTERIA GLOBOS TRIANA,"AVDA SANTA CECILIA, 29",SEVILLA,ESPAÑA,37.3834262,-6.0102385,SI
FLORISTERIA GONZALEZ,"C/ COLON, 6",LALIN (CASCO URBANO),ESPAÑA,42.6617761,-8.1126233,SI
FLORISTERIA GONZALEZ,"C/ EVARISTO MARTELO, 4",VIMIANZO,ESPAÑA,43.110114,-9.0333607,SI
FLORISTERIA GOROSTI,"MATXIATEGI KALEA 1, BAJO",BERGARA,ESPAÑA,43.1204609,-2.4175019,SI
FLORISTERIA GREFLOR,"C/. SOCRATES, 19",MONTEHERMOSO,ESPAÑA,40.0889973,-6.3509622,SI
FLORISTERIA GUILLERMO GUILLEN,"TRAVESIA DEL AYUNTMIENTO, S/N",PUEYO,ESPAÑA,42.5667279,-1.6475322,SI
FLORISTERIA HANAMI,"C/ SAN MILLAN, 11 BAJO",LOGROÑO,ESPAÑA,42.4654171,-2.4333038,SI
FLORISTERIA HATURAL,"C/SEVERO OCHOA, 7",LA ZUBIA,ESPAÑA,37.1178082,-3.5830151,SI
FLORISTERIA HEDRA,"VALLE ARGENTINA, 29",CORUÑA (A),ESPAÑA,43.3637626,-8.4103923,SI
FLORISTERIA HIEDRA,"C/CLAUDIO MOYANO, 6",MEDINA DEL CAMPO,ESPAÑA,41.3113798,-4.9131072,SI
FLORISTERIA HIERBA LUISA,"CALLE RASCON, 12",HUELVA,ESPAÑA,37.2594059,-6.953367699999999,SI
FLORISTERIA HNOS.LUQUE,"CALLE SANTA ANGELA DE LA CRUZ, 3",SEVILLA,ESPAÑA,37.3929766,-5.9905224,SI
FLORISTERIA HUERTA PALACIOS,"C/HUERTA PALACIOS, 2",DOS HERMANAS,ESPAÑA,37.284566,-5.921855,SI
FLORISTERIA INMA,"C/SALAMANCA, 48",ZAMORA,ESPAÑA,41.4946776,-5.7416578,SI
FLORISTERIA IRIA,"C/.ADUANA, 11",PADRON,ESPAÑA,42.7381172,-8.660772999999999,SI
FLORISTERIA IRIS,"AVDA. SIMON NIETO, 37",PALENCIA,ESPAÑA,42.0155292,-4.5408853,SI
FLORISTERIA IRIS,"C/PINTOR CORREDOIRA, 6",LUGO,ESPAÑA,43.0031002,-7.5575807,SI
FLORISTERIA ISABEL (DOS HERMANAS),"C/TAJO, 77",DOS HERMANAS,ESPAÑA,37.2864917,-5.9118026,SI
FLORISTERIA ISABEL (LAS CANDELARIAS),"AVDA. PARQUE AMATE PORTAL, 12",SEVILLA,ESPAÑA,37.3843235,-5.950723,SI
FLORISTERIA ISABEL OTERO,"PORTO MELOXO, 77-D",GROVE (O),ESPAÑA,42.4929849,-8.885592899999999,SI
FLORISTERIA J.BRIOSO,"PLAZA HOUSTON, 6",HUELVA,ESPAÑA,37.2600511,-6.9390717,SI
FLORISTERIA JACARANDA,"C/. JUAN RAMON JIMENEZ, 45",MADRID,ESPAÑA,40.462814,-3.6872036,SI
FLORISTERIA JANEIRO,"AVDA.CORUÑA, 422-BAJO IZQ.",LUGO,ESPAÑA,43.0291167,-7.5698042,SI
FLORISTERIA JARDIN,"PLAZA DE ESPAÑA, 5",PONTEVEDRA,ESPAÑA,42.4323425,-8.647337199999999,SI
FLORISTERIA JARDIN,"C/BRASIL, 1",A GUARDIA,ESPAÑA,41.9041428,-8.8667514,SI
FLORISTERIA JARDIN DE CAMAS,"CALLE SANTA MARIA DE GRACIA, 22",CAMAS,ESPAÑA,37.4027306,-6.0345362,SI
FLORISTERIA JARDINFLOR,"CALLE COLON, 40-4ºB",PALENCIA,ESPAÑA,42.0066405,-4.530679399999999,SI
FLORISTERIA JAUJA,"DOCTOR FEDERICO DEL CASTILLO, 6",JAEN,ESPAÑA,37.7765283,-3.7954676,SI
FLORISTERIA JUAN ALMONTE,"CALLE VENIDA DE LA VIRGEN, 13",ALMONTE,ESPAÑA,37.2618522,-6.5175046,SI
FLORISTERIA JULI & ANA,"C/. LOLA MATEOS, 6",OVIEDO,ESPAÑA,43.3621813,-5.8637951,SI
FLORISTERIA JULIO SE,"AVDA DE LA CIENCIA, 20 LOCAL 3A",SEVILLA,ESPAÑA,37.518693,-6.0838226,SI
FLORISTERIA JYR,"CARRETERA GUIJO, 72",ZARZA DE GRANADILLA,ESPAÑA,40.2319504,-6.053188599999999,SI
FLORISTERIA KATY,"AVDA. DE ESPAÑA, 1-BAJO",CEDEIRA,ESPAÑA,43.6607861,-8.0537698,SI
FLORISTERIA KENTYA,"PLAZA SAN JUAN,6",VALLADOLID,ESPAÑA,41.6517339,-4.7173954,SI
FLORISTERIA KENTYA,"C/CALVO SOTELO, 4",VILLARCAYO,ESPAÑA,42.9381511,-3.5723357,SI
FLORISTERIA KINABALU,C/. AVDA. DE ESPAÑA 4 LOCAL C,DOS HERMANAS,ESPAÑA,37.2802536,-5.9338922,SI
FLORISTERIA KIOSKO MANOLI,CTRA. DE TRIGUEROS Nº S/N,GIBRALEON,ESPAÑA,37.3758264,-6.9543595,SI
FLORISTERIA KIOSKO MANOLI (NO USAR),AVDA. DE LARIA-MERCADO DEL CARMEN,HUELVA,ESPAÑA,37.254809,-6.95576,SI
FLORISTERIA LA AURORA,"PLAZA FERNANDO MIRANDA, 5 BAJO",PONFERRADA,ESPAÑA,42.5470638,-6.6015744,SI
FLORISTERIA LA CAMELIA (MORALEJA),"PLAZA DE ESPAÑA, 13",MORALEJA,ESPAÑA,40.068387,-6.6609821,SI
FLORISTERIA LA CASITA DE ALAEJOS,CALLE FORTALEZA Y PLAZA Nº8,ALAEJOS,ESPAÑA,41.306679,-5.2174312,SI
FLORISTERIA LA FABIKA,"C/APOLO, 2",GRANADA,ESPAÑA,37.1895735,-3.6201643,SI
FLORISTERIA LA FLOR (PONFERRADA),"GOMEZ NUÑEZ, 27",PONFERRADA,ESPAÑA,42.5499737,-6.59917,SI
FLORISTERIA LA FLOR (TUI),"GALERIA CARACAS, S/N",TUI,ESPAÑA,42.0472788,-8.645006200000001,SI
FLORISTERIA LA FLOREA,CALLE ORTEGA Y GASSET,HUELVA,ESPAÑA,37.2635769,-6.9280953,SI
FLORISTERIA LA FLORERIA,"PASAJE MANUEL MACHADO, 5",HUELVA,ESPAÑA,37.2591117,-6.9535833,SI
FLORISTERIA LA GALERIA,"CALLE SAN ISIDRO, 28",SEVILLA,ESPAÑA,37.3891195,-5.990706299999999,SI
FLORISTERIA LA GARDENIA ANTEQUERA,"CALLE BELEN, 16",ANTEQUERA,ESPAÑA,37.019168,-4.5533135,SI
FLORISTERIA LA PERGOLA,"C/PABLO NERUDA, Nº 6",NULL,ESPAÑA,36.89975,-5.1701865,SI
FLORISTERIA LA ROSA,"COBIÑA, 12A",TARROÑA - RIANXO,ESPAÑA,42.650504,-8.8166826,SI
FLORISTERIA LA ROSALEDA,"CALLE PUERTO, 7 - LOCAL",HUELVA,ESPAÑA,37.2581222,-6.9518213,SI
FLORISTERIA LA TORESANA,"C/CORREDERA, 24",TORO,ESPAÑA,41.5237808,-5.3921964,SI
FLORISTERIA LADY BLUE,"C. DE FEDERICA MONTSENY, 24, 1ºA",LEGANES,ESPAÑA,40.3225711,-3.7809325,SI
FLORISTERIA LARA,PLAZA SANTA BRIGIDA Nº4-BAJO,VALLADOLID,ESPAÑA,41.6565755,-4.7276636,SI
FLORISTERIA LAS CUMBRES,CALLE ARTESANOS Nº15,HUELVA,ESPAÑA,37.2776407,-6.9397309,SI
FLORISTERIA LAS FLORES DE LUCIA,"C/CABO DE GATA, 8-4ºB",SEVILLA,ESPAÑA,37.4139055,-5.9770194,SI
FLORISTERIA LAS MIMOSAS,"CALLE LABRADORES, 23",VALLADOLID,ESPAÑA,41.6465518,-4.7205826,SI
FLORISTERIA LAS MIMOSAS (HUELVA),"C/ ISLA CRISTINA, Nº2",HUELVA,ESPAÑA,37.2566591,-6.9334643,SI
FLORISTERIA LAS MIMOSAS (NO USAR),"CALLE ISLA CRISITNA, 2",HUELVA,ESPAÑA,37.25786799999999,-6.9348589,SI
FLORISTERIA LAS MIMOSAS(NO USAR),"C/LABRADORES, 23",VALLADOLID,ESPAÑA,41.6465518,-4.7205826,SI
FLORISTERIA LAS ROSAS,"CALLE VILLARRASA, 22",HUELVA,ESPAÑA,37.2558649,-6.935885799999999,SI
FLORISTERIA LAUXAN,"C/. MAYOR, 67",NAVARRA,ESPAÑA,42.8334761,-1.6065835,SI
FLORISTERIA LAYMA,AVENIDA SOLARES 6,NULL,ESPAÑA,43.3256914,-3.8517923,SI
FLORISTERIA LIKEN Y COMPAÑIA,"C/SALAMANCA, 11",VIGO,ESPAÑA,42.2228019,-8.727171,SI
FLORISTERIA LILAS,"REPUBLICA ARGENTINA, 5",TOMIÑO,ESPAÑA,41.9911582,-8.7424169,SI
FLORISTERIA LILIAK LORADENDA,"ERDIKO KALEA, 2",DERIO,ESPAÑA,43.2921309,-2.8873526,SI
FLORISTERIA LILLI-ANN,"C/ LAVERDE RUIZ, 2",SANTIAGO DE COMPOSTELA,ESPAÑA,42.8739062,-8.544539799999999,SI
FLORISTERIA LIRIOS,"RUA LAUREANO PELAEZ,39",VERIN,ESPAÑA,41.9378227,-7.4365111,SI
FLORISTERIA LOFT FLOWERS HOUSE,"CALLE DON CRISTIAN, 12",MALAGA,ESPAÑA,36.7183412,-4.4287849,SI
FLORISTERIA LOLA,"MOS ZAPATERIA, 40",MOS,ESPAÑA,42.2051349,-8.6051092,SI
FLORISTERIA LOLA MUÑOZ,"CALLE BAMI, 6",SEVILLA,ESPAÑA,37.3607334,-5.9793936,SI
FLORISTERIA LOS ABABOLES,"AVDA. DE GUADALAJARA, Nº.21",COBEÑA,ESPAÑA,40.5672414,-3.5031041,SI
FLORISTERIA LOS ANGELES,"AVDA CRUZ ROJA, 64 - LOCAL",SEVILLA,ESPAÑA,37.4025989,-5.9811564,SI
FLORISTERIA LOS GIRASOLES,"C/. ESPRONCEDA, 4",AZNALCOLLAR,ESPAÑA,37.5197299,-6.27087,SI
FLORISTERIA LOS NARDOS (OURENSE),"C/.AVDA. DE LAS CALDAS, Nº14 BAJO",OURENSE,ESPAÑA,42.3483633,-7.8701192,SI
FLORISTERIA LOURDES,"JOSE BARTRINA, 13",NULES,ESPAÑA,39.8530926,-0.1563218,SI
FLORISTERIA LOVI,"CARABELA LA PINTA, 1",BAIONA,ESPAÑA,42.1201707,-8.8511565,SI
FLORISTERIA LOVI (NO USAR),"CARABELA LA PINTA, 1",BAIONA (PONTEVEDRA),ESPAÑA,42.1201707,-8.8511565,SI
FLORISTERIA LUCES,"C/ERBEDELO, 47",ORENSE,ESPAÑA,42.3449205,-7.8850303,SI
FLORISTERIA LUIS ALSAN,"REPUBLICA ARGENTINA, 33",LEON,ESPAÑA,42.5955916,-5.576312,SI
FLORISTERIA MABEMA,AMEIXENDA,CEE,ESPAÑA,42.93317649999999,-9.1632413,SI
FLORISTERIA MACAI FLORISTAS,"C/JOSE PINELO, 22A",ALCALA DE GUADAIRA,ESPAÑA,37.3331645,-5.8511068,SI
FLORISTERIA MADRESELVA,"C/.FEDERICO TAPIA,49-LOCAL,17 GAL.COMERC.",CORUÑA (A),ESPAÑA,43.3617287,-8.4062506,SI
FLORISTERIA MAGICA,"CALLE NUEVA, 19",EL CERRO DE ANDEVALO,ESPAÑA,37.73463100000001,-6.9372807,SI
FLORISTERIA MAJORIS,"JORDI VILLALONGA Y VELASCO, 7",PALMA,ESPAÑA,39.5864406,2.6519557,SI
FLORISTERIA MARANTA VIVEROS,"CALLE VALLADOLID, 19",NULL,ESPAÑA,40.2417885,-3.7624365,SI
FLORISTERIA MARI CARMEN,"CACHADA, 2",ROSAL (O),ESPAÑA,41.9372462,-8.836373,SI
FLORISTERIA MARI CARMEN (ALFARO),"C/. ARACIEL, 1",ALFARO,ESPAÑA,42.1792443,-1.7482437,SI
FLORISTERIA MARI FLOR,"CORREDERA, 15",TORO,ESPAÑA,41.5232465,-5.3927796,SI
FLORISTERIA MARIA (VERIN),"C/.MANUEL TABOADA CID,7",VERIN,ESPAÑA,41.9369401,-7.432964800000001,SI
FLORISTERIA MARIA JOSE,"CUCHILLO, 10",VALENCIA DE DON JUAN,ESPAÑA,42.2924667,-5.5189327,SI
FLORISTERIA MARIA JOSÉ,"C/ NUESTRA SEÑORA DE LA SOLEDAD, Nº 34-36",CANTILLANA,ESPAÑA,37.6103923,-5.8232181,SI
FLORISTERIA MARIA LUISA (TAPICEROS),"CALLE TAPICEROS, 33",SEVILLA,ESPAÑA,37.4224784,-5.963662200000001,SI
FLORISTERIA MARINA,"C/.DE ARMAS, Nº3",MEDINA DE RIOSECO,ESPAÑA,41.8805834,-5.0449388,SI
FLORISTERIA MARINA,"PLAZA DE SANTA ANA, S/N",CHANTADA,ESPAÑA,42.6101382,-7.7710413,SI
FLORISTERIA MARIÑO,"CALLE ARASOLIS, 8",FISTERRA,ESPAÑA,42.9043908,-9.263552299999999,SI
FLORISTERIA MARQUES,"C/ANCHA, 20",PONFERRADA,ESPAÑA,42.54689459999999,-6.588213100000001,SI
FLORISTERIA MARTIN,CALLE RIBARROJA 47 BAJO,MANISES,ESPAÑA,39.4927169,-0.4635361,SI
FLORISTERIA MARU,"RUA DO CONVENTO, 9",MELIDE,ESPAÑA,42.9149643,-8.0156909,SI
