{
  "fecha_generacion": "2026-03-26T15:00:16.023701",
  "umbrales": {
    "rentable_km": 5,
    "revisar_km": 15
  },
  "resumen": {
    "total_clientes": 224,
    "rentables": 180,
    "revisar": 30,
    "no_rentables": 14,
    "km_actuales": 2085.1,
    "km_optimizados": 1813.0,
    "ahorro_km": 272.1,
    "ahorro_pct": 13.0
  },
  "rutas": [
    {
      "id": 2,
      "nombre": "Comarca A",
      "delegacion": "Veraleza Tomiño",
      "km_actual": 171.97,
      "km_optimizado": 100.88,
      "ahorro_km": 71.09,
      "clientes": [
        {
          "id": 4815,
          "nombre": "AGRO NERGA",
          "direccion": "Camiño Praia de Arneles, 36945 Nerga, Pontevedra",
          "lat": 42.2769,
          "lng": -8.831556,
          "desvio_km": 71.09,
          "distancia_delegacion_km": 68.07,
          "vecino_cercano_km": 31.29,
          "clasificacion": "NO RENTABLE",
          "reasignacion_sugerida": {
            "ruta": "Pontevedra 1",
            "desvio": 9.03
          }
        },
        {
          "id": 899,
          "nombre": "FLORISTERIA ANTOXO",
          "direccion": "C/.PAULINO FREIRE, 7, VIGO, ESPAÑA",
          "lat": 42.223864,
          "lng": -8.752842,
          "desvio_km": 7.31,
          "distancia_delegacion_km": 44.79,
          "vecino_cercano_km": 1.69,
          "clasificacion": "REVISAR",
          "reasignacion_sugerida": null
        },
        {
          "id": 577,
          "nombre": "CASAPLANTA VIGO",
          "direccion": "BAIXADA PONTENOVA - TEIXEIRO, 58, VIGO, ESPAÑA",
          "lat": 42.218212,
          "lng": -8.722906,
          "desvio_km": 5.92,
          "distancia_delegacion_km": 40.07,
          "vecino_cercano_km": 1.22,
          "clasificacion": "REVISAR",
          "reasignacion_sugerida": null
        },
        {
          "id": 670,
          "nombre": "COMERCIAL AGRICOLA SINDO",
          "direccion": "C/.SAN BIEITO, 18, GONDOMAR, ESPAÑA",
          "lat": 42.111062,
          "lng": -8.759346,
          "desvio_km": 5.03,
          "distancia_delegacion_km": 14.92,
          "vecino_cercano_km": 0.51,
          "clasificacion": "REVISAR",
          "reasignacion_sugerida": null
        },
        {
          "id": 1546,
          "nombre": "JARDINERIA XAROC",
          "direccion": "SEVERINO COBAS, 168, VIGO, ESPAÑA",
          "lat": 42.225625,
          "lng": -8.687632,
          "desvio_km": 2.99,
          "distancia_delegacion_km": 36.34,
          "vecino_cercano_km": 1.68,
          "clasificacion": "RENTABLE",
          "reasignacion_sugerida": null
        },
        {
          "id": 304,
          "nombre": "ALTO DO TRIGO, SL.",
          "direccion": "CTRA. GANDARA, 90 (VALLADARES), VIGO, ESPAÑA",
          "lat": 42.161154,
          "lng": -8.711446,
          "desvio_km": 2.93,
          "distancia_delegacion_km": 23.31,
          "vecino_cercano_km": 1.53,
          "clasificacion": "RENTABLE",
          "reasignacion_sugerida": null
        },
        {
          "id": 2626,
          "nombre": "VIVEROS SABARIS",
          "direccion": "C/.JULIAN VALVERDE,32-SABARIS, BAIONA, ESPAÑA",
          "lat": 42.113373,
          "lng": -8.816452,
          "desvio_km": 2.18,
          "distancia_delegacion_km": 19.85,
          "vecino_cercano_km": 1.94,
          "clasificacion": "RENTABLE",
          "reasignacion_sugerida": null
        },
        {
          "id": 2729,
          "nombre": "Agro Carlos",
          "direccion": "",
          "lat": 42.107236,
          "lng": -8.802777,
          "desvio_km": 1.69,
          "distancia_delegacion_km": 19.24,
          "vecino_cercano_km": 1.3,
          "clasificacion": "RENTABLE",
          "reasignacion_sugerida": null
        },
        {
          "id": 1739,
          "nombre": "LIKEN",
          "direccion": "AVDA. CLARA CAMPOAMOR, Nº421-LOCAL Nº5HOSPITAL ALVARO CUNQUEIRO, VIGO, ESPAÑA",
          "lat": 42.189596,
          "lng": -8.714584,
          "desvio_km": 1.27,
          "distancia_delegacion_km": 36.36,
          "vecino_cercano_km": 2.02,
          "clasificacion": "RENTABLE",
          "reasignacion_sugerida": null
        },
        {
          "id": 1154,
          "nombre": "FLORISTERIA O ROSAL",
          "direccion": "CESAREO A.VAZQUEZ, 93, SAN  MIGUEL DE OIA-VIGO, ESPAÑA",
          "lat": 42.184228,
          "lng": -8.802339,
          "desvio_km": 1.21,
          "distancia_delegacion_km": 27.3,
          "vecino_cercano_km": 1.41,
          "clasificacion": "RENTABLE",
          "reasignacion_sugerida": null
        },
        {
          "id": 2055,
          "nombre": "PEREZ GROBA CARAMUXO",
          "direccion": "C/ CARAMUXO, 7POLIG. IND. DE CARAMUXO, VIGO, ESPAÑA",
          "lat": 42.208693,
          "lng": -8.749402,
          "desvio_km": 0.97,
          "distancia_delegacion_km": 42.3,
          "vecino_cercano_km": 2.24,
          "clasificacion": "RENTABLE",
          "reasignacion_sugerida": null
        },
        {
          "id": 681,
          "nombre": "COMERCIAL BASTOS",
          "direccion": "CTRA.CAMPOSANCOS, 436SAN MIGUEL DE OIA, VIGO, ESPAÑA",
          "lat": 42.179819,
          "lng": -8.795138,
          "desvio_km": 0.75,
          "distancia_delegacion_km": 27.0,
          "vecino_cercano_km": 1.05,
          "clasificacion": "RENTABLE",
          "reasignacion_sugerida": null
        },
        {
          "id": 204,
          "nombre": "AGROMIÑOR",
          "direccion": "CAMIÑO DAS BARREIRAS, Nº6, RAMALLOSA (SAN PEDRO),A, ESPAÑA",
          "lat": 42.121211,
          "lng": -8.811088,
          "desvio_km": 0.59,
          "distancia_delegacion_km": 20.14,
          "vecino_cercano_km": 1.22,
          "clasificacion": "RENTABLE",
          "reasignacion_sugerida": null
        },
        {
          "id": 255,
          "nombre": "ALEA FLOWERS",
          "direccion": "RUA BARCELONA, 83-BAJO, VIGO, ESPAÑA",
          "lat": 42.222703,
          "lng": -8.72844,
          "desvio_km": 0.43,
          "distancia_delegacion_km": 40.71,
          "vecino_cercano_km": 0.1,
          "clasificacion": "RENTABLE",
          "reasignacion_sugerida": null
        },
        {
          "id": 2727,
          "nombre": "Boa Flor",
          "direccion": "",
          "lat": 42.247154,
          "lng": -8.699771,
          "desvio_km": 0.29,
          "distancia_delegacion_km": 43.08,
          "vecino_cercano_km": 0.14,
          "clasificacion": "RENTABLE",
          "reasignacion_sugerida": null
        },
        {
          "id": 431,
          "nombre": "BEADE AGROFITA SL",
          "direccion": "AVDA. RAMIRO PASCUAL, 33, BEADE, ESPAÑA",
          "lat": 42.195607,
          "lng": -8.716563,
          "desvio_km": 0.21,
          "distancia_delegacion_km": 36.73,
          "vecino_cercano_km": 1.41,
          "clasificacion": "RENTABLE",
          "reasignacion_sugerida": null
        },
        {
          "id": 4817,
          "nombre": "NOELIA CORTEGOSO",
          "direccion": "Rúa Urb. Miñor, 46, 36380 Gondomar, Pontevedra",
          "lat": 42.107485,
          "lng": -8.761254,
          "desvio_km": 0.17,
          "distancia_delegacion_km": 14.52,
          "vecino_cercano_km": 0.57,
          "clasificacion": "RENTABLE",
          "reasignacion_sugerida": null
        },
        {
          "id": 337,
          "nombre": "ANGEL COVELO",
          "direccion": "C/ PINTOR LAXEIRO, 4- BAJO, VIGO, ESPAÑA",
          "lat": 42.222571,
          "lng": -8.729701,
          "desvio_km": 0.16,
          "distancia_delegacion_km": 40.29,
          "vecino_cercano_km": 0.57,
          "clasificacion": "RENTABLE",
          "reasignacion_sugerida": null
        },
        {
          "id": 18,
          "nombre": "A LEIRA DE LOLA (GUILLERMO MARTÍN)",
          "direccion": "AVDA PABLO IGLESIAS, 56, NIGRAN, ESPAÑA",
          "lat": 42.163738,
          "lng": -8.80174,
          "desvio_km": 0.0,
          "distancia_delegacion_km": 24.81,
          "vecino_cercano_km": 2.19,
          "clasificacion": "RENTABLE",
          "reasignacion_sugerida": null
        },
        {
          "id": 277,
          "nombre": "ALMACENES A LIMIA, SL",
          "direccion": "POLIGONO A PASAXE, 10 NAVE 3 (VINCIOS), GONDOMAR, ESPAÑA",
          "lat": 42.155008,
          "lng": -8.720565,
          "desvio_km": 0.0,
          "distancia_delegacion_km": 22.03,
          "vecino_cercano_km": 1.56,
          "clasificacion": "RENTABLE",
          "reasignacion_sugerida": null
        },
        {
          "id": 673,
          "nombre": "COMERCIAL AGRICOLA VERDE MIÑOR",
          "direccion": "C/ROSALIA DE CASTRO, 28, NIGRAN, ESPAÑA",
          "lat": 42.138266,
          "lng": -8.807487,
          "desvio_km": 0.0,
          "distancia_delegacion_km": 21.76,
          "vecino_cercano_km": 2.03,
          "clasificacion": "RENTABLE",
          "reasignacion_sugerida": null
        },
        {
          "id": 679,
          "nombre": "COMERCIAL AVILANDIA",
          "direccion": "LUIS TABOADA, 27 PL.00 DCHA, VIGO, ESPAÑA",
          "lat": 42.240196,
          "lng": -8.721448,
          "desvio_km": 0.0,
          "distancia_delegacion_km": 45.37,
          "vecino_cercano_km": 0.23,
          "clasificacion": "RENTABLE",
          "reasignacion_sugerida": null
        },
        {
          "id": 2728,
          "nombre": "Concello de vigo",
          "direccion": "",
          "lat": 42.236207,
          "lng": -8.726671,
          "desvio_km": 0.0,
          "distancia_delegacion_km": 41.33,
          "vecino_cercano_km": 1.11,
          "clasificacion": "RENTABLE",
          "reasignacion_sugerida": null
        },
        {
          "id": 738,
          "nombre": "COOPERATIVA DEL CAMPO SANTA CRISTINA",
          "direccion": "C/SAGUNTO, 34 - BAJO, VIGO, ESPAÑA",
          "lat": 42.229105,
          "lng": -8.702244,
          "desvio_km": 0.0,
          "distancia_delegacion_km": 37.97,
          "vecino_cercano_km": 1.9,
          "clasificacion": "RENTABLE",
          "reasignacion_sugerida": null
        },
        {
          "id": 2730,
          "nombre": "Figueraagro",
          "direccion": "",
          "lat": 42.113868,
          "lng": -8.797526,
          "desvio_km": 0.0,
          "distancia_delegacion_km": 17.92,
          "vecino_cercano_km": 1.32,
          "clasificacion": "RENTABLE",
          "reasignacion_sugerida": null
        },
        {
          "id": 1486,
          "nombre": "INVERNADEROS SAMIL",
          "direccion": "AVDA.DE EUROPA, 90, VIGO, ESPAÑA",
          "lat": 42.240599,
          "lng": -8.720727,
          "desvio_km": 0.0,
          "distancia_delegacion_km": 45.36,
          "vecino_cercano_km": 0.12,
          "clasificacion": "RENTABLE",
          "reasignacion_sugerida": null
        },
        {
          "id": 4816,
          "nombre": "JOSE SOLIÑO",
          "direccion": "",
          "lat": 42.204654,
          "lng": -8.687759,
          "desvio_km": 0.0,
          "distancia_delegacion_km": 37.51,
          "vecino_cercano_km": 3.53,
          "clasificacion": "RENTABLE",
          "reasignacion_sugerida": null
        },
        {
          "id": 1644,
          "nombre": "LA BOHEME",
          "direccion": "AVDA. DE GALICIA, 71-3ºF, VIGO, ESPAÑA",
          "lat": 42.251627,
          "lng": -8.692405,
          "desvio_km": 0.0,
          "distancia_delegacion_km": 43.06,
          "vecino_cercano_km": 0.85,
          "clasificacion": "RENTABLE",
          "reasignacion_sugerida": null
        },
        {
          "id": 1695,
          "nombre": "LABRALIA (TRAVESIA DE VIGO)",
          "direccion": "TRAVESIA DE VIGO, 175 BAJO, VIGO, ESPAÑA",
          "lat": 42.242613,
          "lng": -8.700709,
          "desvio_km": 0.0,
          "distancia_delegacion_km": 43.56,
          "vecino_cercano_km": 0.58,
          "clasificacion": "RENTABLE",
          "reasignacion_sugerida": null
        },
        {
          "id": 1889,
          "nombre": "MIRIAN",
          "direccion": "C/.CERVANTE, 8-BAJO, VIGO, ESPAÑA",
          "lat": 42.235726,
          "lng": -8.716906,
          "desvio_km": 0.0,
          "distancia_delegacion_km": 44.97,
          "vecino_cercano_km": 0.87,
          "clasificacion": "RENTABLE",
          "reasignacion_sugerida": null
        },
        {
          "id": 2028,
          "nombre": "PAPAVERO",
          "direccion": "C/ COLON, 2, VIGO, ESPAÑA",
          "lat": 42.239046,
          "lng": -8.720784,
          "desvio_km": 0.0,
          "distancia_delegacion_km": 45.23,
          "vecino_cercano_km": 0.58,
          "clasificacion": "RENTABLE",
          "reasignacion_sugerida": null
        },
        {
          "id": 2193,
          "nombre": "RITA VILLAR FLORISTA.",
          "direccion": "C/TEIXUGUEIRA-BLOQUE, 14-LOCAL C, VIGO, ESPAÑA",
          "lat": 42.211767,
          "lng": -8.75477,
          "desvio_km": 0.0,
          "distancia_delegacion_km": 43.57,
          "vecino_cercano_km": 1.13,
          "clasificacion": "RENTABLE",
          "reasignacion_sugerida": null
        },
        {
          "id": 2384,
          "nombre": "TIENDAS ECOPLANTA",
          "direccion": "TRAVESIA DE VIGO, 103 BAJO, VIGO, ESPAÑA",
          "lat": 42.238234,
          "lng": -8.703824,
          "desvio_km": 0.0,
          "distancia_delegacion_km": 44.08,
          "vecino_cercano_km": 0.89,
          "clasificacion": "RENTABLE",
          "reasignacion_sugerida": null
        },
        {
          "id": 2675,
          "nombre": "XAZMIN",
          "direccion": "C/SANJURJO BADIA Nº120 (TEIS), VIGO, ESPAÑA",
          "lat": 42.246412,
          "lng": -8.701177,
          "desvio_km": 0.0,
          "distancia_delegacion_km": 43.22,
          "vecino_cercano_km": 0.14,
          "clasificacion": "RENTABLE",
          "reasignacion_sugerida": null
        }
      ]
    },
    {
      "id": 6,
      "nombre": "Orense A",
      "delegacion": "Veraleza Tomiño",
      "km_actual": 447.77,
      "km_optimizado": 386.02,
      "ahorro_km": 61.75,
      "clientes": [
        {
          "id": 1585,
          "nombre": "JOSE FRANCISCO ATANES SEOANE",
          "direccion": "ALAMEDA DO CRUCEIRO, 16, CUALEDRO, ESPAÑA",
          "lat": 41.989037,
          "lng": -7.593582,
          "desvio_km": 32.47,
          "distancia_delegacion_km": 154.0,
          "vecino_cercano_km": 15.11,
          "clasificacion": "NO RENTABLE",
          "reasignacion_sugerida": null
        },
        {
          "id": 2400,
          "nombre": "TRALALEIRA C.S.A",
          "direccion": "AIDEA DE OROXO,12SAN MAMEDE DE URROS, ALLARIZ, ESPAÑA",
          "lat": 42.212301,
          "lng": -7.861229,
          "desvio_km": 31.76,
          "distancia_delegacion_km": 125.75,
          "vecino_cercano_km": 5.76,
          "clasificacion": "NO RENTABLE",
          "reasignacion_sugerida": null
        },
        {
          "id": 1094,
          "nombre": "FLORISTERIA LUCES",
          "direccion": "C/ERBEDELO, 47, ORENSE, ESPAÑA",
          "lat": 42.344921,
          "lng": -7.88503,
          "desvio_km": 15.33,
          "distancia_delegacion_km": 103.55,
          "vecino_cercano_km": 1.87,
          "clasificacion": "NO RENTABLE",
          "reasignacion_sugerida": {
            "ruta": "Orense B",
            "desvio": 3.97
          }
        },
        {
          "id": 4784,
          "nombre": "EL BACHIR NIASSE 1",
          "direccion": "C/.ERVEDELO Nº 4 BAJO, OURENSE, ESPAÑA",
          "lat": 42.339972,
          "lng": -7.867312,
          "desvio_km": 13.82,
          "distancia_delegacion_km": 104.01,
          "vecino_cercano_km": 0.31,
          "clasificacion": "REVISAR",
          "reasignacion_sugerida": {
            "ruta": "Orense B",
            "desvio": 3.27
          }
        },
        {
          "id": 499,
          "nombre": "BRAÑA, SOC. COOP. LTADA",
          "direccion": "ESTRADA SAN PEDRO DE ROCAS, TARREIRIGO-ESGOS, ESPAÑA",
          "lat": 42.341888,
          "lng": -7.713412,
          "desvio_km": 13.71,
          "distancia_delegacion_km": 128.41,
          "vecino_cercano_km": 8.89,
          "clasificacion": "REVISAR",
          "reasignacion_sugerida": null
        },
        {
          "id": 2710,
          "nombre": "EL BACHIR NIASSE 2",
          "direccion": "C/.DOUTOR FLEMING, 26, OURENSE, ESPAÑA",
          "lat": 42.338791,
          "lng": -7.867463,
          "desvio_km": 13.05,
          "distancia_delegacion_km": 104.45,
          "vecino_cercano_km": 0.38,
          "clasificacion": "REVISAR",
          "reasignacion_sugerida": {
            "ruta": "Orense B",
            "desvio": 3.42
          }
        },
        {
          "id": 2334,
          "nombre": "SUEÑOS E IDEAS",
          "direccion": "C/.POMBAL, 6-BAJO, BANDE, ESPAÑA",
          "lat": 42.031104,
          "lng": -7.975316,
          "desvio_km": 11.68,
          "distancia_delegacion_km": 95.93,
          "vecino_cercano_km": 15.46,
          "clasificacion": "REVISAR",
          "reasignacion_sugerida": null
        },
        {
          "id": 463,
          "nombre": "BIOAGRO ALLARIZ",
          "direccion": "POLIGONO 8-20 PARC.2C, ALLARIZ, ESPAÑA",
          "lat": 42.189466,
          "lng": -7.800552,
          "desvio_km": 8.82,
          "distancia_delegacion_km": 124.08,
          "vecino_cercano_km": 9.73,
          "clasificacion": "REVISAR",
          "reasignacion_sugerida": null
        },
        {
          "id": 2225,
          "nombre": "RUBEN RODRIGUEZ",
          "direccion": "LUGAR DE PIÑEIRA, 116XINZO DE LIMIA, PIÑEIRA SECA, ESPAÑA",
          "lat": 42.089061,
          "lng": -7.632435,
          "desvio_km": 7.58,
          "distancia_delegacion_km": 149.55,
          "vecino_cercano_km": 8.58,
          "clasificacion": "REVISAR",
          "reasignacion_sugerida": null
        },
        {
          "id": 195,
          "nombre": "AGROJARDIN",
          "direccion": "CTRA. DE MADRID, KM 234 (O PIÑEIRAL), SAN CIBRAO DAS VIÑAS, ESPAÑA",
          "lat": 42.294845,
          "lng": -7.87284,
          "desvio_km": 6.62,
          "distancia_delegacion_km": 108.16,
          "vecino_cercano_km": 3.15,
          "clasificacion": "REVISAR",
          "reasignacion_sugerida": null
        },
        {
          "id": 161,
          "nombre": "AGRO XINZO-SOAGA",
          "direccion": "PARQUE EMP.VILANOVAVIAL B-MANZANA 4  PARC.1, BAION-VILANOVA DE AROUSA, ESPAÑA",
          "lat": 42.078975,
          "lng": -7.720275,
          "desvio_km": 2.75,
          "distancia_delegacion_km": 138.97,
          "vecino_cercano_km": 1.82,
          "clasificacion": "RENTABLE",
          "reasignacion_sugerida": null
        },
        {
          "id": 2044,
          "nombre": "PAULO DAVID LEITE CARVALHO DA SILVA",
          "direccion": "C/. VILANOVA, 38VILAR DE BARRIO, ARNUIDE, ESPAÑA",
          "lat": 42.197351,
          "lng": -7.606339,
          "desvio_km": 1.49,
          "distancia_delegacion_km": 141.25,
          "vecino_cercano_km": 9.54,
          "clasificacion": "RENTABLE",
          "reasignacion_sugerida": null
        },
        {
          "id": 265,
          "nombre": "ALFARERIA ALTO DO COUSO (HERMESINDO)",
          "direccion": "ALTO DO COUSO, S/N, ESGOS, ESPAÑA",
          "lat": 42.312235,
          "lng": -7.675498,
          "desvio_km": 1.46,
          "distancia_delegacion_km": 124.79,
          "vecino_cercano_km": 5.97,
          "clasificacion": "RENTABLE",
          "reasignacion_sugerida": null
        },
        {
          "id": 4799,
          "nombre": "GRUPO DILA Es GRUNDILA",
          "direccion": "LUGAR A DERRASA, S-N, 32792 A Derrasa, Province of Ourense",
          "lat": 42.32213,
          "lng": -7.786033,
          "desvio_km": 1.31,
          "distancia_delegacion_km": 113.46,
          "vecino_cercano_km": 7.31,
          "clasificacion": "RENTABLE",
          "reasignacion_sugerida": null
        },
        {
          "id": 199,
          "nombre": "AGROLONIA",
          "direccion": "RUA ALFONSO RODRIGUEZ CASTELAO, 52, OURENSE, ESPAÑA",
          "lat": 42.347452,
          "lng": -7.853962,
          "desvio_km": 0.88,
          "distancia_delegacion_km": 105.71,
          "vecino_cercano_km": 1.04,
          "clasificacion": "RENTABLE",
          "reasignacion_sugerida": null
        },
        {
          "id": 4797,
          "nombre": "FLORISTERÍA LUCES",
          "direccion": "C. Ervedelo, 47, 32002 Orense, Ourense",
          "lat": 42.340402,
          "lng": -7.872596,
          "desvio_km": 0.73,
          "distancia_delegacion_km": 103.78,
          "vecino_cercano_km": 0.67,
          "clasificacion": "RENTABLE",
          "reasignacion_sugerida": null
        },
        {
          "id": 158,
          "nombre": "AGRO VILLA",
          "direccion": "C/. REZA, 12 (GALERIAS ROMA), OURENSE, ESPAÑA",
          "lat": 42.338125,
          "lng": -7.86663,
          "desvio_km": 0.45,
          "distancia_delegacion_km": 104.33,
          "vecino_cercano_km": 0.12,
          "clasificacion": "RENTABLE",
          "reasignacion_sugerida": null
        },
        {
          "id": 4798,
          "nombre": "M Y S SUPERMERCADO",
          "direccion": "Lugar Pereiras, 17, 32690 Pereiras, Province of Ourense",
          "lat": 42.264954,
          "lng": -7.79967,
          "desvio_km": 0.3,
          "distancia_delegacion_km": 117.2,
          "vecino_cercano_km": 4.98,
          "clasificacion": "RENTABLE",
          "reasignacion_sugerida": null
        },
        {
          "id": 14,
          "nombre": "A HORTA DE LINA",
          "direccion": "PLAZA DE ABASTOS, 5, OURENSE, ESPAÑA",
          "lat": 42.33541,
          "lng": -7.86632,
          "desvio_km": 0.15,
          "distancia_delegacion_km": 104.5,
          "vecino_cercano_km": 0.32,
          "clasificacion": "RENTABLE",
          "reasignacion_sugerida": null
        },
        {
          "id": 50,
          "nombre": "AGRICENTRO XINZO",
          "direccion": "AVDA. MADRID, 100, XINZO DE LIMIA, ESPAÑA",
          "lat": 42.059606,
          "lng": -7.717888,
          "desvio_km": 0.0,
          "distancia_delegacion_km": 140.97,
          "vecino_cercano_km": 1.02,
          "clasificacion": "RENTABLE",
          "reasignacion_sugerida": null
        },
        {
          "id": 64,
          "nombre": "AGRICOLA LIMIANA",
          "direccion": "C/RIO ARNOYA, 6, XINZO DE LIMIA, ESPAÑA",
          "lat": 42.059934,
          "lng": -7.726311,
          "desvio_km": 0.0,
          "distancia_delegacion_km": 140.67,
          "vecino_cercano_km": 0.18,
          "clasificacion": "RENTABLE",
          "reasignacion_sugerida": null
        },
        {
          "id": 87,
          "nombre": "AGRO 4 ESTACIONES",
          "direccion": "AVDA. DELANOVA, 7 A, VALENZA, BARBADAS (A), ESPAÑA",
          "lat": 42.316822,
          "lng": -7.883668,
          "desvio_km": 0.0,
          "distancia_delegacion_km": 106.1,
          "vecino_cercano_km": 0.73,
          "clasificacion": "RENTABLE",
          "reasignacion_sugerida": null
        },
        {
          "id": 102,
          "nombre": "AGRO BIONA CELANOVA",
          "direccion": "CASTOR ELICES, 30 - BAJO, CELANOVA, ESPAÑA",
          "lat": 42.153635,
          "lng": -7.955418,
          "desvio_km": 0.0,
          "distancia_delegacion_km": 99.42,
          "vecino_cercano_km": 0.1,
          "clasificacion": "RENTABLE",
          "reasignacion_sugerida": null
        },
        {
          "id": 128,
          "nombre": "AGRO MACEDA",
          "direccion": "RUA CATRO CAMIÑOS 1ºA, MACEDA, ESPAÑA",
          "lat": 42.268791,
          "lng": -7.652098,
          "desvio_km": 0.0,
          "distancia_delegacion_km": 131.28,
          "vecino_cercano_km": 0.45,
          "clasificacion": "RENTABLE",
          "reasignacion_sugerida": null
        },
        {
          "id": 136,
          "nombre": "AGRO NIETO",
          "direccion": "AVDA. CELANOVA B-116, VALENZA, (A), ESPAÑA",
          "lat": 42.311702,
          "lng": -7.886785,
          "desvio_km": 0.0,
          "distancia_delegacion_km": 106.77,
          "vecino_cercano_km": 0.0,
          "clasificacion": "RENTABLE",
          "reasignacion_sugerida": null
        },
        {
          "id": 4800,
          "nombre": "AGRO RIBERA SACRA",
          "direccion": "Rúa do Deporte, 4, bj, 32700 Maceda, Ourense",
          "lat": 42.270639,
          "lng": -7.65262,
          "desvio_km": 0.0,
          "distancia_delegacion_km": 131.27,
          "vecino_cercano_km": 0.42,
          "clasificacion": "RENTABLE",
          "reasignacion_sugerida": null
        },
        {
          "id": 153,
          "nombre": "AGRO SAN MAMEDE",
          "direccion": "AVENIDA DOS MILAGROS, 20, MACEDA, ESPAÑA",
          "lat": 42.267135,
          "lng": -7.649661,
          "desvio_km": 0.0,
          "distancia_delegacion_km": 131.73,
          "vecino_cercano_km": 0.45,
          "clasificacion": "RENTABLE",
          "reasignacion_sugerida": null
        },
        {
          "id": 165,
          "nombre": "AGROALMACENES ELIAS",
          "direccion": "AVDA.SAN ROSENDO, 3, CELANOVA, ESPAÑA",
          "lat": 42.154076,
          "lng": -7.9544,
          "desvio_km": 0.0,
          "distancia_delegacion_km": 99.31,
          "vecino_cercano_km": 0.2,
          "clasificacion": "RENTABLE",
          "reasignacion_sugerida": null
        },
        {
          "id": 180,
          "nombre": "AGROCOUSAS",
          "direccion": "C/.PEÑA TREVINCA, 36 BAIXO, OURENSE, ESPAÑA",
          "lat": 42.331947,
          "lng": -7.861865,
          "desvio_km": 0.0,
          "distancia_delegacion_km": 107.16,
          "vecino_cercano_km": 0.74,
          "clasificacion": "RENTABLE",
          "reasignacion_sugerida": null
        },
        {
          "id": 4796,
          "nombre": "AGROPECUARIA BEATRIZ",
          "direccion": "Rúa Pena Trevinca, 17, 32005 Ourense",
          "lat": 42.33471,
          "lng": -7.86089,
          "desvio_km": 0.0,
          "distancia_delegacion_km": 105.5,
          "vecino_cercano_km": 0.0,
          "clasificacion": "RENTABLE",
          "reasignacion_sugerida": null
        },
        {
          "id": 214,
          "nombre": "AGROPECUARIA Mª BEATRIZ",
          "direccion": "C/ PEÑA TREVINCA, 17 - BAJO, OURENSE, ESPAÑA",
          "lat": 42.33471,
          "lng": -7.86089,
          "desvio_km": 0.0,
          "distancia_delegacion_km": 105.5,
          "vecino_cercano_km": 0.0,
          "clasificacion": "RENTABLE",
          "reasignacion_sugerida": null
        },
        {
          "id": 323,
          "nombre": "ANA FLOR",
          "direccion": "C/ RICARDO MARTÍN ESPERANZA, Nº 9, CIPRIÁN DAS VIÑAS, ESPAÑA",
          "lat": 42.289109,
          "lng": -7.838294,
          "desvio_km": 0.0,
          "distancia_delegacion_km": 113.09,
          "vecino_cercano_km": 2.79,
          "clasificacion": "RENTABLE",
          "reasignacion_sugerida": null
        },
        {
          "id": 402,
          "nombre": "AUGUSTO Y SOUSA",
          "direccion": "MANCHICA, 45, MERCA, (A), ESPAÑA",
          "lat": 42.221981,
          "lng": -7.908329,
          "desvio_km": 0.0,
          "distancia_delegacion_km": 120.28,
          "vecino_cercano_km": 5.76,
          "clasificacion": "RENTABLE",
          "reasignacion_sugerida": null
        },
        {
          "id": 606,
          "nombre": "CENTRO DE JARDINERIA MANTENJARDIN",
          "direccion": "AVDA.BUENOS AIRES, 121, OURENSE, ESPAÑA",
          "lat": 42.342382,
          "lng": -7.854476,
          "desvio_km": 0.0,
          "distancia_delegacion_km": 105.65,
          "vecino_cercano_km": 0.82,
          "clasificacion": "RENTABLE",
          "reasignacion_sugerida": null
        },
        {
          "id": 805,
          "nombre": "DIAGNE SC",
          "direccion": "AVDA. CELANOVA, Nº.117PLANTA 2, PUERTA AA VALENZA, BARBADAS, ESPAÑA",
          "lat": 42.311702,
          "lng": -7.886785,
          "desvio_km": 0.0,
          "distancia_delegacion_km": 106.77,
          "vecino_cercano_km": 0.0,
          "clasificacion": "RENTABLE",
          "reasignacion_sugerida": null
        },
        {
          "id": 4801,
          "nombre": "FITOAGRARIA",
          "direccion": "Rúa Dous de Maio, 57, 32630 Xinzo de Limia, Ourense",
          "lat": 42.059141,
          "lng": -7.727546,
          "desvio_km": 0.0,
          "distancia_delegacion_km": 140.75,
          "vecino_cercano_km": 0.18,
          "clasificacion": "RENTABLE",
          "reasignacion_sugerida": null
        },
        {
          "id": 1121,
          "nombre": "FLORISTERIA MAYU",
          "direccion": "C/CELSO EMILIO FERREIRO, 4, CELANOVA, ESPAÑA",
          "lat": 42.153119,
          "lng": -7.956899,
          "desvio_km": 0.0,
          "distancia_delegacion_km": 99.6,
          "vecino_cercano_km": 0.23,
          "clasificacion": "RENTABLE",
          "reasignacion_sugerida": null
        },
        {
          "id": 1289,
          "nombre": "FROUMA",
          "direccion": "AVENIDA DE PORTUGAL, 4, OURENSE, ESPAÑA",
          "lat": 42.33906,
          "lng": -7.87061,
          "desvio_km": 0.0,
          "distancia_delegacion_km": 103.91,
          "vecino_cercano_km": 0.28,
          "clasificacion": "RENTABLE",
          "reasignacion_sugerida": null
        },
        {
          "id": 4794,
          "nombre": "MARTINEZ RUVA",
          "direccion": "Rúa da Paz, 8, 32005 Ourense",
          "lat": 42.337005,
          "lng": -7.863613,
          "desvio_km": 0.0,
          "distancia_delegacion_km": 104.66,
          "vecino_cercano_km": 0.0,
          "clasificacion": "RENTABLE",
          "reasignacion_sugerida": null
        },
        {
          "id": 1859,
          "nombre": "MEDEN",
          "direccion": "C/ PROGRESO, 18, OURENSE, ESPAÑA",
          "lat": 42.333381,
          "lng": -7.865731,
          "desvio_km": 0.0,
          "distancia_delegacion_km": 104.7,
          "vecino_cercano_km": 0.28,
          "clasificacion": "RENTABLE",
          "reasignacion_sugerida": null
        },
        {
          "id": 1920,
          "nombre": "MUNDO VIVO",
          "direccion": "VALLE INCLAN, 43 BAJO, OURENSE, ESPAÑA",
          "lat": 42.341679,
          "lng": -7.861575,
          "desvio_km": 0.0,
          "distancia_delegacion_km": 104.82,
          "vecino_cercano_km": 0.67,
          "clasificacion": "RENTABLE",
          "reasignacion_sugerida": null
        },
        {
          "id": 4795,
          "nombre": "MUNDO VIVO",
          "direccion": "Rúa Valle Inclán, 45, 32004 Ourense",
          "lat": 42.342487,
          "lng": -7.860183,
          "desvio_km": 0.0,
          "distancia_delegacion_km": 104.94,
          "vecino_cercano_km": 0.33,
          "clasificacion": "RENTABLE",
          "reasignacion_sugerida": null
        },
        {
          "id": 1970,
          "nombre": "O AGRO DOS BORRAJO",
          "direccion": "AVDA. ZAMORA, 150 BAJO, OURENSE, ESPAÑA",
          "lat": 42.320422,
          "lng": -7.862202,
          "desvio_km": 0.0,
          "distancia_delegacion_km": 107.94,
          "vecino_cercano_km": 1.51,
          "clasificacion": "RENTABLE",
          "reasignacion_sugerida": null
        },
        {
          "id": 2341,
          "nombre": "SUPERMERCADO AGRICOLA",
          "direccion": "AVDA. SAN ROSENDO, 21, CELANOVA, ESPAÑA",
          "lat": 42.152563,
          "lng": -7.955021,
          "desvio_km": 0.0,
          "distancia_delegacion_km": 99.51,
          "vecino_cercano_km": 0.2,
          "clasificacion": "RENTABLE",
          "reasignacion_sugerida": null
        },
        {
          "id": 4793,
          "nombre": "Viveron Alecrin(Plaza)",
          "direccion": "Rúa da Paz, 8, 32005 Ourense",
          "lat": 42.337008,
          "lng": -7.863611,
          "desvio_km": 0.0,
          "distancia_delegacion_km": 104.66,
          "vecino_cercano_km": 0.0,
          "clasificacion": "RENTABLE",
          "reasignacion_sugerida": null
        },
        {
          "id": 2548,
          "nombre": "VIVEROS ALECRIN",
          "direccion": "CTRA. OU-540 KM 10.5 LOIRO, SAN CIBRAO DAS VIÑAS, ESPAÑA",
          "lat": 42.300472,
          "lng": -7.853121,
          "desvio_km": 0.0,
          "distancia_delegacion_km": 110.24,
          "vecino_cercano_km": 2.54,
          "clasificacion": "RENTABLE",
          "reasignacion_sugerida": null
        },
        {
          "id": 2609,
          "nombre": "VIVEROS MENDE",
          "direccion": "RUA DA RABAZA, 61, OURENSE, ESPAÑA",
          "lat": 42.346833,
          "lng": -7.839971,
          "desvio_km": 0.0,
          "distancia_delegacion_km": 106.95,
          "vecino_cercano_km": 1.6,
          "clasificacion": "RENTABLE",
          "reasignacion_sugerida": null
        },
        {
          "id": 2665,
          "nombre": "XARDIN DA LIMIA",
          "direccion": "PISTA DEVESA, S/N, XINZO DE LIMIA, ESPAÑA",
          "lat": 42.066909,
          "lng": -7.722532,
          "desvio_km": 0.0,
          "distancia_delegacion_km": 140.92,
          "vecino_cercano_km": 1.09,
          "clasificacion": "RENTABLE",
          "reasignacion_sugerida": null
        }
      ]
    },
    {
      "id": 5,
      "nombre": "Pontevedra 2",
      "delegacion": "Veraleza Tomiño",
      "km_actual": 354.54,
      "km_optimizado": 294.49,
      "ahorro_km": 60.05,
      "clientes": [
        {
          "id": 176,
          "nombre": "AGROCHAN",
          "direccion": "A CHAN, 22 CERDEDO, COTOBADE, ESPAÑA",
          "lat": 42.472989,
          "lng": -8.447042,
          "desvio_km": 24.77,
          "distancia_delegacion_km": 88.03,
          "vecino_cercano_km": 19.34,
          "clasificacion": "NO RENTABLE",
          "reasignacion_sugerida": {
            "ruta": "Pontevedra 3",
            "desvio": 22.88
          }
        },
        {
          "id": 16,
          "nombre": "A HORTA DE SANERO",
          "direccion": "LUGAR DE VILAR, Nº36(AL LADO DEL MONASTERIO DE ARMENTEIRA), ARMENTEIRA-MEIS, ESPAÑA",
          "lat": 42.463309,
          "lng": -8.741918,
          "desvio_km": 24.28,
          "distancia_delegacion_km": 86.39,
          "vecino_cercano_km": 6.66,
          "clasificacion": "NO RENTABLE",
          "reasignacion_sugerida": null
        },
        {
          "id": 692,
          "nombre": "COMERCIAL PIRIS",
          "direccion": "EXCUSA Nº7BARRANTES, RIBADUMIA, ESPAÑA",
          "lat": 42.518871,
          "lng": -8.751236,
          "desvio_km": 20.6,
          "distancia_delegacion_km": 81.67,
          "vecino_cercano_km": 4.87,
          "clasificacion": "NO RENTABLE",
          "reasignacion_sugerida": null
        },
        {
          "id": 67,
          "nombre": "AGRICOLA MEAÑO",
          "direccion": "CAMPO DA FEIRA, 2, MEAÑO, ESPAÑA",
          "lat": 42.444133,
          "lng": -8.78177,
          "desvio_km": 19.96,
          "distancia_delegacion_km": 87.95,
          "vecino_cercano_km": 2.74,
          "clasificacion": "NO RENTABLE",
          "reasignacion_sugerida": null
        },
        {
          "id": 76,
          "nombre": "AGRICOLA PRIETO",
          "direccion": "Av. Cruceiro, 43, 36990 Sanxenxo, Pontevedra",
          "lat": 42.443547,
          "lng": -8.832497,
          "desvio_km": 16.58,
          "distancia_delegacion_km": 96.0,
          "vecino_cercano_km": 1.44,
          "clasificacion": "NO RENTABLE",
          "reasignacion_sugerida": null
        },
        {
          "id": 2250,
          "nombre": "SANIPLANT SAUDE VEXETAL",
          "direccion": "AVDA. VILAGARCIA, Nº56 BAJO, CAMBADOS, ESPAÑA",
          "lat": 42.521749,
          "lng": -8.812829,
          "desvio_km": 16.57,
          "distancia_delegacion_km": 88.36,
          "vecino_cercano_km": 1.85,
          "clasificacion": "NO RENTABLE",
          "reasignacion_sugerida": null
        },
        {
          "id": 1800,
          "nombre": "MARCELINO ARES",
          "direccion": "COVELO, 58, MORAÑA, ESPAÑA",
          "lat": 42.59003,
          "lng": -8.599955,
          "desvio_km": 12.17,
          "distancia_delegacion_km": 84.17,
          "vecino_cercano_km": 12.89,
          "clasificacion": "REVISAR",
          "reasignacion_sugerida": null
        },
        {
          "id": 705,
          "nombre": "COMERCIAL VILANOVIÑA",
          "direccion": "LG. VILANOVIÑA Nº20B, PARADELA (MEIS), ESPAÑA",
          "lat": 42.545909,
          "lng": -8.725561,
          "desvio_km": 9.19,
          "distancia_delegacion_km": 80.53,
          "vecino_cercano_km": 5.21,
          "clasificacion": "REVISAR",
          "reasignacion_sugerida": null
        },
        {
          "id": 17,
          "nombre": "A LABRANZA (PONTEVEDRA)",
          "direccion": "JOAQUIN COSTA, 112, PONTEVEDRA, ESPAÑA",
          "lat": 42.426738,
          "lng": -8.633893,
          "desvio_km": 6.03,
          "distancia_delegacion_km": 62.19,
          "vecino_cercano_km": 1.62,
          "clasificacion": "REVISAR",
          "reasignacion_sugerida": null
        },
        {
          "id": 697,
          "nombre": "COMERCIAL SIVAR",
          "direccion": "CASAS NOVAS, 62, MOURENTE, ESPAÑA",
          "lat": 42.441646,
          "lng": -8.615402,
          "desvio_km": 5.19,
          "distancia_delegacion_km": 65.31,
          "vecino_cercano_km": 0.22,
          "clasificacion": "REVISAR",
          "reasignacion_sugerida": {
            "ruta": "Pontevedra 3",
            "desvio": 3.76
          }
        },
        {
          "id": 69,
          "nombre": "AGRICOLA MOURENTE",
          "direccion": "CASAS NOVAS, 31, MOURENTE (SANTA MARIA), ESPAÑA",
          "lat": 42.440601,
          "lng": -8.617528,
          "desvio_km": 5.16,
          "distancia_delegacion_km": 65.08,
          "vecino_cercano_km": 0.24,
          "clasificacion": "REVISAR",
          "reasignacion_sugerida": {
            "ruta": "Pontevedra 3",
            "desvio": 3.48
          }
        },
        {
          "id": 144,
          "nombre": "AGRO PORTONOVO",
          "direccion": "CTRA. DA LANZADA, Nº62, PORTONOVO, ESPAÑA",
          "lat": 42.395261,
          "lng": -8.829191,
          "desvio_km": 3.89,
          "distancia_delegacion_km": 94.69,
          "vecino_cercano_km": 1.82,
          "clasificacion": "RENTABLE",
          "reasignacion_sugerida": null
        },
        {
          "id": 2720,
          "nombre": "Agricola Peyca",
          "direccion": "Lugar de Borrateiros, 22, Figueirido, 36140 Borrateiros, Pontevedra",
          "lat": 42.375525,
          "lng": -8.634636,
          "desvio_km": 3.45,
          "distancia_delegacion_km": 57.48,
          "vecino_cercano_km": 6.25,
          "clasificacion": "RENTABLE",
          "reasignacion_sugerida": null
        },
        {
          "id": 108,
          "nombre": "AGRO CARRIL",
          "direccion": "C/.ROSALIA DE CASTRO, 112 BAJO 4-CARRIL, VILAGARCIA DE AROUSA, ESPAÑA",
          "lat": 42.610099,
          "lng": -8.769471,
          "desvio_km": 3.4,
          "distancia_delegacion_km": 88.35,
          "vecino_cercano_km": 1.86,
          "clasificacion": "RENTABLE",
          "reasignacion_sugerida": null
        },
        {
          "id": 140,
          "nombre": "AGRO PANCHO",
          "direccion": "A XESTEIRA, 1CASTRELO, CAMBADOS, ESPAÑA",
          "lat": 42.523888,
          "lng": -8.795283,
          "desvio_km": 3.21,
          "distancia_delegacion_km": 87.59,
          "vecino_cercano_km": 1.35,
          "clasificacion": "RENTABLE",
          "reasignacion_sugerida": null
        },
        {
          "id": 159,
          "nombre": "AGRO VISTA REAL",
          "direccion": "VISTA REAL, 39 (CORON), VILAGARCIA DE AROUSA, ESPAÑA",
          "lat": 42.596159,
          "lng": -8.767002,
          "desvio_km": 1.98,
          "distancia_delegacion_km": 88.05,
          "vecino_cercano_km": 1.68,
          "clasificacion": "RENTABLE",
          "reasignacion_sugerida": null
        },
        {
          "id": 73,
          "nombre": "AGRICOLA O CON",
          "direccion": "C/ O'COM, 8 BAJO, O GROVE, ESPAÑA",
          "lat": 42.495996,
          "lng": -8.865142,
          "desvio_km": 1.69,
          "distancia_delegacion_km": 104.84,
          "vecino_cercano_km": 1.24,
          "clasificacion": "RENTABLE",
          "reasignacion_sugerida": null
        },
        {
          "id": 116,
          "nombre": "AGRO CURRO",
          "direccion": "Lugar de Bretoña, 36692 Barro, Pontevedra",
          "lat": 42.504191,
          "lng": -8.662358,
          "desvio_km": 1.67,
          "distancia_delegacion_km": 70.97,
          "vecino_cercano_km": 4.42,
          "clasificacion": "RENTABLE",
          "reasignacion_sugerida": null
        },
        {
          "id": 685,
          "nombre": "COMERCIAL CACABELOS (YARA)",
          "direccion": "LUGAR VICHONA, 59, SANXENXO, ESPAÑA",
          "lat": 42.416489,
          "lng": -8.82525,
          "desvio_km": 1.51,
          "distancia_delegacion_km": 93.54,
          "vecino_cercano_km": 1.39,
          "clasificacion": "RENTABLE",
          "reasignacion_sugerida": null
        },
        {
          "id": 530,
          "nombre": "CAMPOGAR",
          "direccion": "AVDA.DECAMBADOS, 61 - BAIXO-MOSTEIRO, MEIS, ESPAÑA",
          "lat": 42.518147,
          "lng": -8.703039,
          "desvio_km": 1.38,
          "distancia_delegacion_km": 76.3,
          "vecino_cercano_km": 2.65,
          "clasificacion": "RENTABLE",
          "reasignacion_sugerida": null
        },
        {
          "id": 232,
          "nombre": "AGROTENDA DE MARTIN",
          "direccion": "LUGAR DE BURGANS, 91, VILARIÑO (CAMBADOS), ESPAÑA",
          "lat": 42.516278,
          "lng": -8.801014,
          "desvio_km": 1.28,
          "distancia_delegacion_km": 86.34,
          "vecino_cercano_km": 1.35,
          "clasificacion": "RENTABLE",
          "reasignacion_sugerida": null
        },
        {
          "id": 71,
          "nombre": "AGRICOLA MUIÑO VELLO",
          "direccion": "C/CAMPOS, 19B, GROVE, (O), ESPAÑA",
          "lat": 42.487137,
          "lng": -8.870561,
          "desvio_km": 1.13,
          "distancia_delegacion_km": 104.7,
          "vecino_cercano_km": 1.28,
          "clasificacion": "RENTABLE",
          "reasignacion_sugerida": null
        },
        {
          "id": 2718,
          "nombre": "Alpe Agropecuaria O Burgo",
          "direccion": "Rúa Martín Códax, 18, 36005 Pontevedra",
          "lat": 42.437122,
          "lng": -8.644175,
          "desvio_km": 0.18,
          "distancia_delegacion_km": 63.87,
          "vecino_cercano_km": 0.0,
          "clasificacion": "RENTABLE",
          "reasignacion_sugerida": null
        },
        {
          "id": 300,
          "nombre": "ALPE COMERCIAL (O BURGO)",
          "direccion": "AVDA.MARTIN CODAX, 18-22 O BURGO, PONTEVEDRA, ESPAÑA",
          "lat": 42.437121,
          "lng": -8.644175,
          "desvio_km": 0.18,
          "distancia_delegacion_km": 63.87,
          "vecino_cercano_km": 0.0,
          "clasificacion": "RENTABLE",
          "reasignacion_sugerida": null
        },
        {
          "id": 59,
          "nombre": "AGRICOLA DENA",
          "direccion": "C/.ALTAMIRA, 12MEAÑO, DENA (SANTA EULALIA), ESPAÑA",
          "lat": 42.448183,
          "lng": -8.810184,
          "desvio_km": 0.0,
          "distancia_delegacion_km": 90.61,
          "vecino_cercano_km": 0.75,
          "clasificacion": "RENTABLE",
          "reasignacion_sugerida": null
        },
        {
          "id": 61,
          "nombre": "AGRICOLA EL HORREO",
          "direccion": "C/.JUAN BAUTISTA ANDRADE, 128 BAJO, LEREZ, ESPAÑA",
          "lat": 42.445179,
          "lng": -8.637792,
          "desvio_km": 0.0,
          "distancia_delegacion_km": 65.78,
          "vecino_cercano_km": 1.68,
          "clasificacion": "RENTABLE",
          "reasignacion_sugerida": null
        },
        {
          "id": 91,
          "nombre": "AGRO A LAXE",
          "direccion": "REPUBLICA ARGENTINA, 36-BAIXO, MARIN (CASCO URBANO), ESPAÑA",
          "lat": 42.391485,
          "lng": -8.702082,
          "desvio_km": 0.0,
          "distancia_delegacion_km": 66.19,
          "vecino_cercano_km": 0.0,
          "clasificacion": "RENTABLE",
          "reasignacion_sugerida": null
        },
        {
          "id": 103,
          "nombre": "AGRO BORA",
          "direccion": "Calle Bora, 10, 36154 Pontevedra",
          "lat": 42.443958,
          "lng": -8.58129,
          "desvio_km": 0.0,
          "distancia_delegacion_km": 68.87,
          "vecino_cercano_km": 3.71,
          "clasificacion": "RENTABLE",
          "reasignacion_sugerida": null
        },
        {
          "id": 113,
          "nombre": "AGRO CONDE ADINA",
          "direccion": "C/. ADINA IGLESIA, 18, PORTONOVO, ESPAÑA",
          "lat": 42.408168,
          "lng": -8.8329,
          "desvio_km": 0.0,
          "distancia_delegacion_km": 94.35,
          "vecino_cercano_km": 1.39,
          "clasificacion": "RENTABLE",
          "reasignacion_sugerida": null
        },
        {
          "id": 298,
          "nombre": "ALPE COMERCIAL (COMBARRO)",
          "direccion": "AVENIDA DA CRUZ, 75, COMBARRO - POIO, ESPAÑA",
          "lat": 42.435051,
          "lng": -8.705014,
          "desvio_km": 0.0,
          "distancia_delegacion_km": 68.69,
          "vecino_cercano_km": 3.89,
          "clasificacion": "RENTABLE",
          "reasignacion_sugerida": null
        },
        {
          "id": 608,
          "nombre": "CENTRO DE JARDINERIA TERRAS",
          "direccion": "AVDA.DOCTOR OTERO ULLOA, 1 (SEIXO), MARIN, ESPAÑA",
          "lat": 42.391485,
          "lng": -8.702082,
          "desvio_km": 0.0,
          "distancia_delegacion_km": 66.19,
          "vecino_cercano_km": 0.0,
          "clasificacion": "RENTABLE",
          "reasignacion_sugerida": null
        },
        {
          "id": 2721,
          "nombre": "Comercial La Granja",
          "direccion": "Rúa Cobián Roffignac, 7, 36002 Pontevedra",
          "lat": 42.43175,
          "lng": -8.642292,
          "desvio_km": 0.0,
          "distancia_delegacion_km": 63.42,
          "vecino_cercano_km": 0.81,
          "clasificacion": "RENTABLE",
          "reasignacion_sugerida": null
        },
        {
          "id": 2719,
          "nombre": "Comercial Ogasa",
          "direccion": "Rúa Adro, 2, 36163 Poio, Pontevedra",
          "lat": 42.433244,
          "lng": -8.667858,
          "desvio_km": 0.0,
          "distancia_delegacion_km": 64.89,
          "vecino_cercano_km": 2.55,
          "clasificacion": "RENTABLE",
          "reasignacion_sugerida": null
        },
        {
          "id": 1277,
          "nombre": "FORRAJES SALNES",
          "direccion": "C/PAZO, 1 - MOSTEIRO, MEIS, ESPAÑA",
          "lat": 42.502951,
          "lng": -8.715083,
          "desvio_km": 0.0,
          "distancia_delegacion_km": 78.02,
          "vecino_cercano_km": 2.7,
          "clasificacion": "RENTABLE",
          "reasignacion_sugerida": null
        },
        {
          "id": 2473,
          "nombre": "VICTORINO DURAN",
          "direccion": "RUA DA CHANCA, Nº3MEAÑO, DENA (SANTA EULALIA), ESPAÑA",
          "lat": 42.448633,
          "lng": -8.816856,
          "desvio_km": 0.0,
          "distancia_delegacion_km": 89.54,
          "vecino_cercano_km": 0.75,
          "clasificacion": "RENTABLE",
          "reasignacion_sugerida": null
        }
      ]
    },
    {
      "id": 1,
      "nombre": "Pontevedra 3",
      "delegacion": "Veraleza Tomiño",
      "km_actual": 247.65,
      "km_optimizado": 223.04,
      "ahorro_km": 24.61,
      "clientes": [
        {
          "id": 1868,
          "nombre": "MERKAPIENSO AGROTENDA",
          "direccion": "AVDA. DE CAMBADOS, 9 BAJO, VILAGARCIA DE AROUSA, ESPAÑA",
          "lat": 42.588891,
          "lng": -8.772084,
          "desvio_km": 24.61,
          "distancia_delegacion_km": 88.17,
          "vecino_cercano_km": 13.56,
          "clasificacion": "NO RENTABLE",
          "reasignacion_sugerida": {
            "ruta": "Pontevedra 2",
            "desvio": 2.77
          }
        },
        {
          "id": 239,
          "nombre": "AGROYFORES",
          "direccion": "BAJA, 3-ARCOS DA CONDESA, CALDAS DE REIS, ESPAÑA",
          "lat": 42.577278,
          "lng": -8.639675,
          "desvio_km": 7.26,
          "distancia_delegacion_km": 81.37,
          "vecino_cercano_km": 4.48,
          "clasificacion": "REVISAR",
          "reasignacion_sugerida": {
            "ruta": "Pontevedra 2",
            "desvio": 7.1
          }
        },
        {
          "id": 689,
          "nombre": "COMERCIAL GARDIZ",
          "direccion": "BARRIO MAYO VIASCON, 22, VIASCON, ESPAÑA",
          "lat": 42.484508,
          "lng": -8.542062,
          "desvio_km": 6.83,
          "distancia_delegacion_km": 75.07,
          "vecino_cercano_km": 9.12,
          "clasificacion": "REVISAR",
          "reasignacion_sugerida": null
        },
        {
          "id": 695,
          "nombre": "COMERCIAL RODRIGUEZ",
          "direccion": "VILARCHAN, Nº51, PONTECALDELAS, ESPAÑA",
          "lat": 42.411705,
          "lng": -8.561629,
          "desvio_km": 1.15,
          "distancia_delegacion_km": 69.86,
          "vecino_cercano_km": 2.04,
          "clasificacion": "RENTABLE",
          "reasignacion_sugerida": null
        },
        {
          "id": 4819,
          "nombre": "AGRÍCOLA HORREO (Cuntis)",
          "direccion": "R. Juan Bautista Andrade, 128, 36005 Pontevedra",
          "lat": 42.445182,
          "lng": -8.637796,
          "desvio_km": 0.5,
          "distancia_delegacion_km": 65.78,
          "vecino_cercano_km": 5.56,
          "clasificacion": "RENTABLE",
          "reasignacion_sugerida": null
        },
        {
          "id": 2715,
          "nombre": "Agrícola Horreo",
          "direccion": "Calle Circunvalación Don Aurelio, 41, 36670 Cuntis, Pontevedra",
          "lat": 42.634123,
          "lng": -8.561704,
          "desvio_km": 0.36,
          "distancia_delegacion_km": 92.63,
          "vecino_cercano_km": 0.93,
          "clasificacion": "RENTABLE",
          "reasignacion_sugerida": null
        },
        {
          "id": 68,
          "nombre": "AGRICOLA MIERES",
          "direccion": "CALVOS, 2, CUNTIS, ESPAÑA",
          "lat": 42.636195,
          "lng": -8.57193,
          "desvio_km": 0.23,
          "distancia_delegacion_km": 93.31,
          "vecino_cercano_km": 0.12,
          "clasificacion": "RENTABLE",
          "reasignacion_sugerida": null
        },
        {
          "id": 80,
          "nombre": "AGRICOLA REIGOSA",
          "direccion": "Rua Reigosa, 49B, 36828, Pontevedra",
          "lat": 42.405842,
          "lng": -8.578812,
          "desvio_km": 0.2,
          "distancia_delegacion_km": 67.93,
          "vecino_cercano_km": 2.05,
          "clasificacion": "RENTABLE",
          "reasignacion_sugerida": null
        },
        {
          "id": 74,
          "nombre": "AGRICOLA O CRUCEIRO",
          "direccion": "PO-532, 36164 A Ermida, Pontevedra",
          "lat": 42.418416,
          "lng": -8.597703,
          "desvio_km": 0.06,
          "distancia_delegacion_km": 64.9,
          "vecino_cercano_km": 3.09,
          "clasificacion": "RENTABLE",
          "reasignacion_sugerida": null
        },
        {
          "id": 2714,
          "nombre": "Agro Fragas",
          "direccion": "Lugar Redonde, 15, 36118 Campo Lameiro, Pontevedra",
          "lat": 42.504362,
          "lng": -8.557574,
          "desvio_km": 0.0,
          "distancia_delegacion_km": 78.38,
          "vecino_cercano_km": 0.0,
          "clasificacion": "RENTABLE",
          "reasignacion_sugerida": null
        },
        {
          "id": 155,
          "nombre": "AGRO SAN ROQUE",
          "direccion": "C/.FILGUEIRAS, Nº5, XEVE, ESPAÑA",
          "lat": 42.463102,
          "lng": -8.587251,
          "desvio_km": 0.0,
          "distancia_delegacion_km": 71.71,
          "vecino_cercano_km": 5.56,
          "clasificacion": "RENTABLE",
          "reasignacion_sugerida": null
        },
        {
          "id": 156,
          "nombre": "AGRO SAVOY",
          "direccion": "PLAZA A PEDREIRA, 1, LAMA, (A), ESPAÑA",
          "lat": 42.396956,
          "lng": -8.442071,
          "desvio_km": 0.0,
          "distancia_delegacion_km": 62.65,
          "vecino_cercano_km": 6.85,
          "clasificacion": "RENTABLE",
          "reasignacion_sugerida": null
        },
        {
          "id": 662,
          "nombre": "COMERCIAL A LABRANZA (CALDAS)",
          "direccion": "C/JUAN FUENTES, 54 BAJO, CALDAS DE REIS (CASCO URBANO), ESPAÑA",
          "lat": 42.604183,
          "lng": -8.650701,
          "desvio_km": 0.0,
          "distancia_delegacion_km": 86.42,
          "vecino_cercano_km": 4.38,
          "clasificacion": "RENTABLE",
          "reasignacion_sugerida": null
        },
        {
          "id": 2716,
          "nombre": "Ferreteria Mieres",
          "direccion": "Calvos 2, 36670 Cuntis, Pontevedra",
          "lat": 42.636347,
          "lng": -8.570118,
          "desvio_km": 0.0,
          "distancia_delegacion_km": 93.2,
          "vecino_cercano_km": 0.0,
          "clasificacion": "RENTABLE",
          "reasignacion_sugerida": null
        },
        {
          "id": 4820,
          "nombre": "FERRETERÍA MIERES",
          "direccion": "Calvos 2, 36670 Cuntis, Pontevedra",
          "lat": 42.636363,
          "lng": -8.570116,
          "desvio_km": 0.0,
          "distancia_delegacion_km": 93.2,
          "vecino_cercano_km": 0.0,
          "clasificacion": "RENTABLE",
          "reasignacion_sugerida": null
        },
        {
          "id": 2717,
          "nombre": "Jesus Seoane",
          "direccion": "Rúa México, 2, 36820 Ponte Caldelas, Pontevedra",
          "lat": 42.390164,
          "lng": -8.50197,
          "desvio_km": 0.0,
          "distancia_delegacion_km": 75.85,
          "vecino_cercano_km": 0.0,
          "clasificacion": "RENTABLE",
          "reasignacion_sugerida": null
        },
        {
          "id": 4821,
          "nombre": "Jesus Seoane",
          "direccion": "Rúa México, 2, 36820 Ponte Caldelas, Pontevedra",
          "lat": 42.39017,
          "lng": -8.501966,
          "desvio_km": 0.0,
          "distancia_delegacion_km": 75.85,
          "vecino_cercano_km": 0.0,
          "clasificacion": "RENTABLE",
          "reasignacion_sugerida": null
        },
        {
          "id": 4818,
          "nombre": "O NOSO AGRO",
          "direccion": "Lugar Redonde, 15, 36118 Campo Lameiro, Pontevedra",
          "lat": 42.504365,
          "lng": -8.55759,
          "desvio_km": 0.0,
          "distancia_delegacion_km": 78.38,
          "vecino_cercano_km": 0.0,
          "clasificacion": "RENTABLE",
          "reasignacion_sugerida": null
        }
      ]
    },
    {
      "id": 7,
      "nombre": "Orense B",
      "delegacion": "Veraleza Tomiño",
      "km_actual": 315.69,
      "km_optimizado": 296.68,
      "ahorro_km": 19.01,
      "clientes": [
        {
          "id": 106,
          "nombre": "AGRO CARBALLEDO",
          "direccion": "AVDA. OURENSE, 28, BARRELA, (LA), ESPAÑA",
          "lat": 42.608375,
          "lng": -7.772772,
          "desvio_km": 19.01,
          "distancia_delegacion_km": 139.03,
          "vecino_cercano_km": 9.89,
          "clasificacion": "NO RENTABLE",
          "reasignacion_sugerida": null
        },
        {
          "id": 4806,
          "nombre": "FERRETERIA AGOSTINO",
          "direccion": "Rúa Gabino Bugallal, 33, 32420 Leiro, Ourense",
          "lat": 42.369024,
          "lng": -8.125345,
          "desvio_km": 7.31,
          "distancia_delegacion_km": 86.19,
          "vecino_cercano_km": 9.05,
          "clasificacion": "REVISAR",
          "reasignacion_sugerida": null
        },
        {
          "id": 203,
          "nombre": "AGROMIÑO 2",
          "direccion": "PORTA DO PRADO S/N, SANTA CRUZ DE ARRABALDO, ESPAÑA",
          "lat": 42.343667,
          "lng": -7.980293,
          "desvio_km": 6.89,
          "distancia_delegacion_km": 93.66,
          "vecino_cercano_km": 9.86,
          "clasificacion": "REVISAR",
          "reasignacion_sugerida": null
        },
        {
          "id": 1321,
          "nombre": "GARDEN PARADELO",
          "direccion": "CTRA.DE VIGO, 74-1º, OURENSE, ESPAÑA",
          "lat": 42.320612,
          "lng": -7.87974,
          "desvio_km": 6.82,
          "distancia_delegacion_km": 105.81,
          "vecino_cercano_km": 3.99,
          "clasificacion": "REVISAR",
          "reasignacion_sugerida": {
            "ruta": "Orense A",
            "desvio": 1.06
          }
        },
        {
          "id": 2497,
          "nombre": "VIVEIROS AMENCER",
          "direccion": "BATUNDEIRA, 13, VELLE, ESPAÑA",
          "lat": 42.358619,
          "lng": -7.84667,
          "desvio_km": 4.84,
          "distancia_delegacion_km": 106.87,
          "vecino_cercano_km": 2.44,
          "clasificacion": "RENTABLE",
          "reasignacion_sugerida": null
        },
        {
          "id": 2142,
          "nombre": "PROYECTA PAISAJE",
          "direccion": "LUGAR DE SAA, 5, A PEROXA, ESPAÑA",
          "lat": 42.464718,
          "lng": -7.844445,
          "desvio_km": 3.63,
          "distancia_delegacion_km": 122.29,
          "vecino_cercano_km": 10.67,
          "clasificacion": "RENTABLE",
          "reasignacion_sugerida": null
        },
        {
          "id": 2676,
          "nombre": "XENOE",
          "direccion": "TOMAS MARIA MOSQUERA, 51, CARBALLIÑO, (O), ESPAÑA",
          "lat": 42.428385,
          "lng": -8.079663,
          "desvio_km": 1.01,
          "distancia_delegacion_km": 94.75,
          "vecino_cercano_km": 0.33,
          "clasificacion": "RENTABLE",
          "reasignacion_sugerida": null
        },
        {
          "id": 1537,
          "nombre": "JARDINERIA MAVA",
          "direccion": "BARXAS,17, CUDEIRO, ESPAÑA",
          "lat": 42.363984,
          "lng": -7.866713,
          "desvio_km": 0.8,
          "distancia_delegacion_km": 106.14,
          "vecino_cercano_km": 0.69,
          "clasificacion": "RENTABLE",
          "reasignacion_sugerida": null
        },
        {
          "id": 1881,
          "nombre": "MILAGROS IGLESIAS RIVERA",
          "direccion": "RUA BELLAO, 2 - BAJO, OURENSE, ESPAÑA",
          "lat": 42.353632,
          "lng": -7.864293,
          "desvio_km": 0.79,
          "distancia_delegacion_km": 105.14,
          "vecino_cercano_km": 0.34,
          "clasificacion": "RENTABLE",
          "reasignacion_sugerida": null
        },
        {
          "id": 4803,
          "nombre": "COMERCIAL BABARRO",
          "direccion": "Rúa Río Arnoia, 24, 32001 Ourense",
          "lat": 42.351496,
          "lng": -7.869394,
          "desvio_km": 0.54,
          "distancia_delegacion_km": 104.72,
          "vecino_cercano_km": 0.3,
          "clasificacion": "RENTABLE",
          "reasignacion_sugerida": null
        },
        {
          "id": 93,
          "nombre": "AGRO A PONTE",
          "direccion": "C/. SAN PAYO, 3 BAJO, OURENSE, ESPAÑA",
          "lat": 42.349942,
          "lng": -7.874194,
          "desvio_km": 0.51,
          "distancia_delegacion_km": 103.99,
          "vecino_cercano_km": 0.73,
          "clasificacion": "RENTABLE",
          "reasignacion_sugerida": null
        },
        {
          "id": 126,
          "nombre": "AGRO HERMIDA",
          "direccion": "ALMOZARA, 34, BOBORAS, ESPAÑA",
          "lat": 42.432415,
          "lng": -8.142732,
          "desvio_km": 0.51,
          "distancia_delegacion_km": 96.38,
          "vecino_cercano_km": 7.19,
          "clasificacion": "RENTABLE",
          "reasignacion_sugerida": null
        },
        {
          "id": 667,
          "nombre": "COMERCIAL AGRICOLA PUGA",
          "direccion": "RUA DA FEIRA NOVA, 24 BAJO, OURENSE, ESPAÑA",
          "lat": 42.347608,
          "lng": -7.8772,
          "desvio_km": 0.29,
          "distancia_delegacion_km": 103.53,
          "vecino_cercano_km": 0.78,
          "clasificacion": "RENTABLE",
          "reasignacion_sugerida": null
        },
        {
          "id": 173,
          "nombre": "AGROCAR",
          "direccion": "MARGARITA TABOADA,10, CARBALLIÑO, (O), ESPAÑA",
          "lat": 42.429832,
          "lng": -8.079218,
          "desvio_km": 0.25,
          "distancia_delegacion_km": 95.08,
          "vecino_cercano_km": 0.24,
          "clasificacion": "RENTABLE",
          "reasignacion_sugerida": null
        },
        {
          "id": 288,
          "nombre": "ALMACENES RIVERA",
          "direccion": "AVDA CALDAS, 17, PUENTE, ESPAÑA",
          "lat": 42.347557,
          "lng": -7.869545,
          "desvio_km": 0.25,
          "distancia_delegacion_km": 104.21,
          "vecino_cercano_km": 0.52,
          "clasificacion": "RENTABLE",
          "reasignacion_sugerida": null
        },
        {
          "id": 2692,
          "nombre": "ZOOFEDI",
          "direccion": "TRAV.ESCULTOR BUCIÑOS, 14-BAJO 3, BARRELA, (LA), ESPAÑA",
          "lat": 42.540023,
          "lng": -7.81653,
          "desvio_km": 0.21,
          "distancia_delegacion_km": 129.44,
          "vecino_cercano_km": 0.11,
          "clasificacion": "RENTABLE",
          "reasignacion_sugerida": null
        },
        {
          "id": 97,
          "nombre": "AGRO ARENTEIRO",
          "direccion": "RUA MARCELINO PARRONDO Nº27-29 BAJO, CARBALLIÑO, ESPAÑA",
          "lat": 42.432757,
          "lng": -8.078078,
          "desvio_km": 0.16,
          "distancia_delegacion_km": 95.5,
          "vecino_cercano_km": 0.27,
          "clasificacion": "RENTABLE",
          "reasignacion_sugerida": null
        },
        {
          "id": 2036,
          "nombre": "PATATAS BOLLO",
          "direccion": "PLAZA DA MARIÑA, 5, OURENSE, ESPAÑA",
          "lat": 42.35087,
          "lng": -7.86636,
          "desvio_km": 0.12,
          "distancia_delegacion_km": 104.47,
          "vecino_cercano_km": 0.3,
          "clasificacion": "RENTABLE",
          "reasignacion_sugerida": null
        },
        {
          "id": 120,
          "nombre": "AGRO ESTEVEZ",
          "direccion": "C/ASTURESES, 19 BAJO, CARBALLIÑO, (O), ESPAÑA",
          "lat": 42.430216,
          "lng": -8.081707,
          "desvio_km": 0.09,
          "distancia_delegacion_km": 95.13,
          "vecino_cercano_km": 0.24,
          "clasificacion": "RENTABLE",
          "reasignacion_sugerida": null
        },
        {
          "id": 4804,
          "nombre": "ALMACENES IGLESIAS GRANADILLO",
          "direccion": "Rúa de Cuba, 19, 32500 O Carballiño, Ourense",
          "lat": 42.432524,
          "lng": -8.079948,
          "desvio_km": 0.08,
          "distancia_delegacion_km": 95.42,
          "vecino_cercano_km": 0.35,
          "clasificacion": "RENTABLE",
          "reasignacion_sugerida": null
        },
        {
          "id": 4802,
          "nombre": "EL JARDIN DE CARLOS",
          "direccion": "EL JARDIN DE CARLOS",
          "lat": 42.356906,
          "lng": -7.864527,
          "desvio_km": 0.07,
          "distancia_delegacion_km": 105.23,
          "vecino_cercano_km": 0.18,
          "clasificacion": "RENTABLE",
          "reasignacion_sugerida": null
        },
        {
          "id": 172,
          "nombre": "AGROCAN",
          "direccion": "AVDA. SANTIAGO, 102 BAJO DCHA., OURENSE, ESPAÑA",
          "lat": 42.355904,
          "lng": -7.865145,
          "desvio_km": 0.06,
          "distancia_delegacion_km": 105.05,
          "vecino_cercano_km": 0.18,
          "clasificacion": "RENTABLE",
          "reasignacion_sugerida": null
        },
        {
          "id": 212,
          "nombre": "AGROPECUARIA FERVENZA",
          "direccion": "AVENIDA SANTIAGO, 166, OURENSE, ESPAÑA",
          "lat": 42.360337,
          "lng": -7.865646,
          "desvio_km": 0.0,
          "distancia_delegacion_km": 105.54,
          "vecino_cercano_km": 0.59,
          "clasificacion": "RENTABLE",
          "reasignacion_sugerida": null
        },
        {
          "id": 281,
          "nombre": "ALMACENES CESTEIRO",
          "direccion": "AVENIDA DE CEA,16, BARRELA, (LA), ESPAÑA",
          "lat": 42.540082,
          "lng": -7.815603,
          "desvio_km": 0.0,
          "distancia_delegacion_km": 129.33,
          "vecino_cercano_km": 0.11,
          "clasificacion": "RENTABLE",
          "reasignacion_sugerida": null
        },
        {
          "id": 4805,
          "nombre": "FERRETERIA BOTANA",
          "direccion": "Rúa Principal, 44, 32570 Maside, Ourense",
          "lat": 42.411989,
          "lng": -8.025543,
          "desvio_km": 0.0,
          "distancia_delegacion_km": 100.09,
          "vecino_cercano_km": 5.73,
          "clasificacion": "RENTABLE",
          "reasignacion_sugerida": null
        }
      ]
    },
    {
      "id": 3,
      "nombre": "Comarca B",
      "delegacion": "Veraleza Tomiño",
      "km_actual": 160.95,
      "km_optimizado": 142.06,
      "ahorro_km": 18.89,
      "clientes": [
        {
          "id": 142,
          "nombre": "AGRO PARAÑOS",
          "direccion": "PORTO CORTIÑAS, 3 (N-120), PARAÑOS (COVELO), ESPAÑA",
          "lat": 42.21163,
          "lng": -8.352084,
          "desvio_km": 18.89,
          "distancia_delegacion_km": 54.47,
          "vecino_cercano_km": 14.96,
          "clasificacion": "NO RENTABLE",
          "reasignacion_sugerida": {
            "ruta": "Orense C",
            "desvio": 12.58
          }
        },
        {
          "id": 2774,
          "nombre": "AGRO PESQUEIRAS",
          "direccion": "GALLAMONDE, 14 (PESQUEIRAS), SALVATERRA DE NUÑO (RESTO PARROQUIA), ESPAÑA",
          "lat": 42.116181,
          "lng": -8.488303,
          "desvio_km": 4.42,
          "distancia_delegacion_km": 35.52,
          "vecino_cercano_km": 3.46,
          "clasificacion": "RENTABLE",
          "reasignacion_sugerida": null
        },
        {
          "id": 105,
          "nombre": "AGRO CAMPO VEIGA",
          "direccion": "CTRA.PEINADOR-OS VALOS, 152GUIZAN, MOS, ESPAÑA",
          "lat": 42.228265,
          "lng": -8.612598,
          "desvio_km": 4.0,
          "distancia_delegacion_km": 37.59,
          "vecino_cercano_km": 4.05,
          "clasificacion": "RENTABLE",
          "reasignacion_sugerida": null
        },
        {
          "id": 2282,
          "nombre": "SEMOLA",
          "direccion": "CARRETERA PEINADOR-REDONDELA, KM.6MILLARADA, 61, VILLAR DE INFESTA, ESPAÑA",
          "lat": 42.232825,
          "lng": -8.634591,
          "desvio_km": 3.54,
          "distancia_delegacion_km": 36.05,
          "vecino_cercano_km": 4.15,
          "clasificacion": "RENTABLE",
          "reasignacion_sugerida": null
        },
        {
          "id": 2706,
          "nombre": "ECONOMATO AGRICOLA",
          "direccion": "FIOLLEDO, CHANS, 57, SALVATERRA DO MIÑO, ESPAÑA",
          "lat": 42.10118,
          "lng": -8.475687,
          "desvio_km": 2.91,
          "distancia_delegacion_km": 35.9,
          "vecino_cercano_km": 3.46,
          "clasificacion": "RENTABLE",
          "reasignacion_sugerida": null
        },
        {
          "id": 2724,
          "nombre": "AGRO CANIS/CASYFER",
          "direccion": "",
          "lat": 42.167528,
          "lng": -8.502468,
          "desvio_km": 1.66,
          "distancia_delegacion_km": 39.22,
          "vecino_cercano_km": 1.55,
          "clasificacion": "RENTABLE",
          "reasignacion_sugerida": null
        },
        {
          "id": 2722,
          "nombre": "Coluga (Porriño)",
          "direccion": "Ctra. Porriño-Salceda, Km. 0, 5 Bajo, 36400 O Porriño, Pontevedra",
          "lat": 42.132077,
          "lng": -8.619036,
          "desvio_km": 1.62,
          "distancia_delegacion_km": 22.82,
          "vecino_cercano_km": 2.26,
          "clasificacion": "RENTABLE",
          "reasignacion_sugerida": null
        },
        {
          "id": 664,
          "nombre": "COMERCIAL AGRICOLA ANTONIO",
          "direccion": "RUA MEROUCES, Nº8, MONDARIZ, ESPAÑA",
          "lat": 42.234188,
          "lng": -8.455011,
          "desvio_km": 1.14,
          "distancia_delegacion_km": 47.39,
          "vecino_cercano_km": 0.86,
          "clasificacion": "RENTABLE",
          "reasignacion_sugerida": null
        },
        {
          "id": 434,
          "nombre": "BEGOÑA",
          "direccion": "C/.PICOUZO,27, BUDIÑO, ESPAÑA",
          "lat": 42.117496,
          "lng": -8.600581,
          "desvio_km": 1.09,
          "distancia_delegacion_km": 21.46,
          "vecino_cercano_km": 0.62,
          "clasificacion": "RENTABLE",
          "reasignacion_sugerida": null
        },
        {
          "id": 2501,
          "nombre": "VIVEIROS CANEDO",
          "direccion": "RUA REAL, S/N, PONTEAREAS, ESPAÑA",
          "lat": 42.176646,
          "lng": -8.501649,
          "desvio_km": 0.88,
          "distancia_delegacion_km": 36.63,
          "vecino_cercano_km": 1.33,
          "clasificacion": "RENTABLE",
          "reasignacion_sugerida": null
        },
        {
          "id": 51,
          "nombre": "AGRICOLA A SEMENTEIRA",
          "direccion": "RUA GALICIA, 2 - BAIXO, SALVATERRA DO MIÑO, ESPAÑA",
          "lat": 42.083048,
          "lng": -8.496295,
          "desvio_km": 0.62,
          "distancia_delegacion_km": 30.32,
          "vecino_cercano_km": 0.36,
          "clasificacion": "RENTABLE",
          "reasignacion_sugerida": null
        },
        {
          "id": 2726,
          "nombre": "Agrícola Areas",
          "direccion": "",
          "lat": 42.179009,
          "lng": -8.533826,
          "desvio_km": 0.41,
          "distancia_delegacion_km": 33.92,
          "vecino_cercano_km": 2.71,
          "clasificacion": "RENTABLE",
          "reasignacion_sugerida": null
        },
        {
          "id": 4814,
          "nombre": "Ferreteria Gozago",
          "direccion": "Rúa do Doutor Zunzunegui, 18 - bajo, 36470 Salceda de Caselas, Pontevedra",
          "lat": 42.103737,
          "lng": -8.556547,
          "desvio_km": 0.34,
          "distancia_delegacion_km": 26.42,
          "vecino_cercano_km": 0.67,
          "clasificacion": "RENTABLE",
          "reasignacion_sugerida": null
        },
        {
          "id": 82,
          "nombre": "AGRICOLA SAN PAIO",
          "direccion": "AS ANGUSTIAS (SANGUIÑEDA), MOS, ESPAÑA",
          "lat": 42.173355,
          "lng": -8.629402,
          "desvio_km": 0.26,
          "distancia_delegacion_km": 26.8,
          "vecino_cercano_km": 4.31,
          "clasificacion": "RENTABLE",
          "reasignacion_sugerida": null
        },
        {
          "id": 152,
          "nombre": "AGRO SALCEDA",
          "direccion": "C/. CORUÑA, Nº2 BAJO, SALCEDA, ESPAÑA",
          "lat": 42.102452,
          "lng": -8.560457,
          "desvio_km": 0.2,
          "distancia_delegacion_km": 25.97,
          "vecino_cercano_km": 0.56,
          "clasificacion": "RENTABLE",
          "reasignacion_sugerida": null
        },
        {
          "id": 294,
          "nombre": "ALMACENS CELSO",
          "direccion": "RUA DA AUTOVIA, 40 TAMEIGA, MOS, ESPAÑA",
          "lat": 42.196409,
          "lng": -8.653357,
          "desvio_km": 0.16,
          "distancia_delegacion_km": 31.14,
          "vecino_cercano_km": 1.6,
          "clasificacion": "RENTABLE",
          "reasignacion_sugerida": null
        },
        {
          "id": 2723,
          "nombre": "San Miguel Mondariz",
          "direccion": "",
          "lat": 42.23306,
          "lng": -8.456329,
          "desvio_km": 0.09,
          "distancia_delegacion_km": 47.11,
          "vecino_cercano_km": 0.36,
          "clasificacion": "RENTABLE",
          "reasignacion_sugerida": null
        },
        {
          "id": 2725,
          "nombre": "AGRICOLA SALVATIERRA",
          "direccion": "",
          "lat": 42.083927,
          "lng": -8.49776,
          "desvio_km": 0.08,
          "distancia_delegacion_km": 30.61,
          "vecino_cercano_km": 0.29,
          "clasificacion": "RENTABLE",
          "reasignacion_sugerida": null
        },
        {
          "id": 79,
          "nombre": "AGRICOLA RAMIREZ",
          "direccion": "DEVESA, 4ºA, BUDIÑO (PORRIÑO, O), ESPAÑA",
          "lat": 42.114599,
          "lng": -8.60619,
          "desvio_km": 0.0,
          "distancia_delegacion_km": 20.99,
          "vecino_cercano_km": 0.62,
          "clasificacion": "RENTABLE",
          "reasignacion_sugerida": null
        },
        {
          "id": 132,
          "nombre": "AGRO MEDER",
          "direccion": "CTRA. PONTEAREAS-AS NEVESSALVATIERRA, MEDER, ESPAÑA",
          "lat": 42.08512,
          "lng": -8.500931,
          "desvio_km": 0.0,
          "distancia_delegacion_km": 30.54,
          "vecino_cercano_km": 0.39,
          "clasificacion": "RENTABLE",
          "reasignacion_sugerida": null
        },
        {
          "id": 146,
          "nombre": "AGRO POUSA",
          "direccion": "AVDA.LUDEIRO, 13 - PUXEIROS, MOS, ESPAÑA",
          "lat": 42.204881,
          "lng": -8.658041,
          "desvio_km": 0.0,
          "distancia_delegacion_km": 33.15,
          "vecino_cercano_km": 1.25,
          "clasificacion": "RENTABLE",
          "reasignacion_sugerida": null
        },
        {
          "id": 737,
          "nombre": "COOPERATIVA DEL CAMPO SAN MIGUEL DE PONTEAREAS",
          "direccion": "RUA BARATILLO, S/N, PONTEAREAS, ESPAÑA",
          "lat": 42.17494,
          "lng": -8.507718,
          "desvio_km": 0.0,
          "distancia_delegacion_km": 36.72,
          "vecino_cercano_km": 0.7,
          "clasificacion": "RENTABLE",
          "reasignacion_sugerida": null
        },
        {
          "id": 1947,
          "nombre": "NELKE",
          "direccion": "C/JOAQUIN FERNANDEZ SESTELO, 17, SALCEDA DE CASELAS, ESPAÑA",
          "lat": 42.100389,
          "lng": -8.559307,
          "desvio_km": 0.0,
          "distancia_delegacion_km": 25.71,
          "vecino_cercano_km": 0.26,
          "clasificacion": "RENTABLE",
          "reasignacion_sugerida": null
        }
      ]
    },
    {
      "id": 4,
      "nombre": "Pontevedra 1",
      "delegacion": "Veraleza Tomiño",
      "km_actual": 189.92,
      "km_optimizado": 173.27,
      "ahorro_km": 16.65,
      "clientes": [
        {
          "id": 90,
          "nombre": "AGRO A GRANXA NESPEREIRA",
          "direccion": "ALVITE, 6PAZOS DE BORBEN, NESPEREIRA, ESPAÑA",
          "lat": 42.275875,
          "lng": -8.527349,
          "desvio_km": 16.65,
          "distancia_delegacion_km": 47.5,
          "vecino_cercano_km": 9.65,
          "clasificacion": "NO RENTABLE",
          "reasignacion_sugerida": {
            "ruta": "Comarca B",
            "desvio": 15.08
          }
        },
        {
          "id": 123,
          "nombre": "AGRO FERRALVE",
          "direccion": "MONTEMOGOS, 154B BELUSO, BUEU, ESPAÑA",
          "lat": 42.326411,
          "lng": -8.808373,
          "desvio_km": 12.21,
          "distancia_delegacion_km": 64.93,
          "vecino_cercano_km": 3.6,
          "clasificacion": "REVISAR",
          "reasignacion_sugerida": {
            "ruta": "Comarca A",
            "desvio": 11.65
          }
        },
        {
          "id": 154,
          "nombre": "AGRO SAN MARTIÑO",
          "direccion": "ABELENDO,17A, MOAÑA, ESPAÑA",
          "lat": 42.283759,
          "lng": -8.743608,
          "desvio_km": 7.84,
          "distancia_delegacion_km": 54.32,
          "vecino_cercano_km": 1.01,
          "clasificacion": "REVISAR",
          "reasignacion_sugerida": null
        },
        {
          "id": 4030,
          "nombre": "FERRETERIA PAREDES",
          "direccion": "LG. PAREDES, 8, PAREDES (VILABOA), ESPAÑA",
          "lat": 42.353937,
          "lng": -8.626947,
          "desvio_km": 7.61,
          "distancia_delegacion_km": 57.91,
          "vecino_cercano_km": 2.77,
          "clasificacion": "REVISAR",
          "reasignacion_sugerida": {
            "ruta": "Pontevedra 2",
            "desvio": 4.96
          }
        },
        {
          "id": 96,
          "nombre": "AGRO ARDAN",
          "direccion": "CASAS 24-B, ARDAN - MARIN, ESPAÑA",
          "lat": 42.391485,
          "lng": -8.702082,
          "desvio_km": 6.24,
          "distancia_delegacion_km": 66.19,
          "vecino_cercano_km": 12.17,
          "clasificacion": "REVISAR",
          "reasignacion_sugerida": {
            "ruta": "Pontevedra 2",
            "desvio": 0.0
          }
        },
        {
          "id": 1810,
          "nombre": "MARIA ARACELI",
          "direccion": "A FRAGA, Nº30, MOAÑA, ESPAÑA",
          "lat": 42.31334,
          "lng": -8.725749,
          "desvio_km": 6.16,
          "distancia_delegacion_km": 54.91,
          "vecino_cercano_km": 2.31,
          "clasificacion": "REVISAR",
          "reasignacion_sugerida": null
        },
        {
          "id": 701,
          "nombre": "COMERCIAL TRIGO",
          "direccion": "MARRUA, Nº 9A, MOAÑA, ESPAÑA",
          "lat": 42.307737,
          "lng": -8.715083,
          "desvio_km": 2.55,
          "distancia_delegacion_km": 52.61,
          "vecino_cercano_km": 2.29,
          "clasificacion": "RENTABLE",
          "reasignacion_sugerida": null
        },
        {
          "id": 2419,
          "nombre": "URSULA PIÑEIRO - CANGAS",
          "direccion": "CUNCHIDO DE ARRIBA 35 (DARBO), CANGAS, ESPAÑA",
          "lat": 42.256172,
          "lng": -8.80002,
          "desvio_km": 2.55,
          "distancia_delegacion_km": 63.83,
          "vecino_cercano_km": 1.27,
          "clasificacion": "RENTABLE",
          "reasignacion_sugerida": null
        },
        {
          "id": 760,
          "nombre": "CRISTINA HERMO LUSTRES",
          "direccion": "LUGAR DE GRUNCHEIRAS, 58 - 1ºB, COIRO (SAN SALVADOR), ESPAÑA",
          "lat": 42.27134,
          "lng": -8.768741,
          "desvio_km": 1.77,
          "distancia_delegacion_km": 60.27,
          "vecino_cercano_km": 2.62,
          "clasificacion": "RENTABLE",
          "reasignacion_sugerida": null
        },
        {
          "id": 185,
          "nombre": "AGROFANDI",
          "direccion": "LAZARETO-TIRAN, 161 MOAÑA, TIRAN (SAN XOAN), ESPAÑA",
          "lat": 42.269248,
          "lng": -8.75295,
          "desvio_km": 1.4,
          "distancia_delegacion_km": 61.7,
          "vecino_cercano_km": 2.31,
          "clasificacion": "RENTABLE",
          "reasignacion_sugerida": null
        },
        {
          "id": 623,
          "nombre": "CEREALES MARTINEZ",
          "direccion": "C/ MESON, 8 - BAJO, PONTES SAMPAIO, ESPAÑA",
          "lat": 42.35004,
          "lng": -8.605461,
          "desvio_km": 1.32,
          "distancia_delegacion_km": 49.67,
          "vecino_cercano_km": 1.33,
          "clasificacion": "RENTABLE",
          "reasignacion_sugerida": null
        },
        {
          "id": 1671,
          "nombre": "LA HUERTA DE MATI (MOAÑA)",
          "direccion": "OS PIÑEIROS 18, SAN MARTIÑO, MOAÑA, ESPAÑA",
          "lat": 42.28537,
          "lng": -8.748956,
          "desvio_km": 1.09,
          "distancia_delegacion_km": 58.23,
          "vecino_cercano_km": 0.98,
          "clasificacion": "RENTABLE",
          "reasignacion_sugerida": null
        },
        {
          "id": 88,
          "nombre": "AGRO A  LABRANZA (REDONDELA)",
          "direccion": "ESTRADA DE VIGO, 10 BAJO, REDONDELA, ESPAÑA",
          "lat": 42.279033,
          "lng": -8.612422,
          "desvio_km": 0.93,
          "distancia_delegacion_km": 39.97,
          "vecino_cercano_km": 0.51,
          "clasificacion": "RENTABLE",
          "reasignacion_sugerida": null
        },
        {
          "id": 138,
          "nombre": "AGRO O EIDO",
          "direccion": "EIDOS,4, REDONDELA, ESPAÑA",
          "lat": 42.283344,
          "lng": -8.606654,
          "desvio_km": 0.82,
          "distancia_delegacion_km": 41.38,
          "vecino_cercano_km": 0.98,
          "clasificacion": "RENTABLE",
          "reasignacion_sugerida": null
        },
        {
          "id": 129,
          "nombre": "AGRO MANOLO",
          "direccion": "Rúa de Alfonso Rodríguez Castelao, 22, 36930 Bueu, Pontevedra",
          "lat": 42.325769,
          "lng": -8.783201,
          "desvio_km": 0.68,
          "distancia_delegacion_km": 63.88,
          "vecino_cercano_km": 0.52,
          "clasificacion": "RENTABLE",
          "reasignacion_sugerida": null
        },
        {
          "id": 216,
          "nombre": "AGROPECUARIA O LABREGO",
          "direccion": "AVENIDA MENDIÑO 44, REDONDELA, ESPAÑA",
          "lat": 42.289826,
          "lng": -8.611962,
          "desvio_km": 0.63,
          "distancia_delegacion_km": 41.48,
          "vecino_cercano_km": 1.21,
          "clasificacion": "RENTABLE",
          "reasignacion_sugerida": null
        },
        {
          "id": 104,
          "nombre": "AGRO BUEU",
          "direccion": "C/.RAMON BARES, 40 BAJO, BUEU, ESPAÑA",
          "lat": 42.322604,
          "lng": -8.786437,
          "desvio_km": 0.59,
          "distancia_delegacion_km": 64.0,
          "vecino_cercano_km": 0.52,
          "clasificacion": "RENTABLE",
          "reasignacion_sugerida": null
        },
        {
          "id": 53,
          "nombre": "AGRICOLA ARCADE",
          "direccion": "AVDA.SOUTOMAIOR, Nº9-BAIXO, ARCADE, ESPAÑA",
          "lat": 42.340784,
          "lng": -8.604871,
          "desvio_km": 0.32,
          "distancia_delegacion_km": 48.66,
          "vecino_cercano_km": 1.33,
          "clasificacion": "RENTABLE",
          "reasignacion_sugerida": null
        },
        {
          "id": 3989,
          "nombre": "FERRETERIA CESANTES",
          "direccion": "ENTRADA DE CESANTES, 43, CESANTES (SAN PEDRO), ESPAÑA",
          "lat": 42.308823,
          "lng": -8.609202,
          "desvio_km": 0.29,
          "distancia_delegacion_km": 43.98,
          "vecino_cercano_km": 2.53,
          "clasificacion": "RENTABLE",
          "reasignacion_sugerida": null
        },
        {
          "id": 137,
          "nombre": "AGRO O CANUDO",
          "direccion": "AVDA.ESTACION Nº15 (NAVE 3), REDONDELA, ESPAÑA",
          "lat": 42.281852,
          "lng": -8.60917,
          "desvio_km": 0.06,
          "distancia_delegacion_km": 40.43,
          "vecino_cercano_km": 0.18,
          "clasificacion": "RENTABLE",
          "reasignacion_sugerida": null
        },
        {
          "id": 148,
          "nombre": "AGRO REDONDELA",
          "direccion": "C/ JOSE REGOJO, 18, REDONDELA, ESPAÑA",
          "lat": 42.281034,
          "lng": -8.610221,
          "desvio_km": 0.0,
          "distancia_delegacion_km": 40.25,
          "vecino_cercano_km": 0.18,
          "clasificacion": "RENTABLE",
          "reasignacion_sugerida": null
        },
        {
          "id": 690,
          "nombre": "COMERCIAL PEDRA ALTA",
          "direccion": "AVDA. BUEU, 21-BAIXO, CANGAS, ESPAÑA",
          "lat": 42.257385,
          "lng": -8.787483,
          "desvio_km": 0.0,
          "distancia_delegacion_km": 62.55,
          "vecino_cercano_km": 1.27,
          "clasificacion": "RENTABLE",
          "reasignacion_sugerida": null
        }
      ]
    },
    {
      "id": 8,
      "nombre": "Orense C",
      "delegacion": "Veraleza Tomiño",
      "km_actual": 196.6,
      "km_optimizado": 196.6,
      "ahorro_km": 0.0,
      "clientes": [
        {
          "id": 147,
          "nombre": "AGRO POUSA (AS NEVES)",
          "direccion": "A POUSA, 9SETADOS, AS NEVES, ESPAÑA",
          "lat": 42.153743,
          "lng": -8.411055,
          "desvio_km": 11.94,
          "distancia_delegacion_km": 45.9,
          "vecino_cercano_km": 8.87,
          "clasificacion": "REVISAR",
          "reasignacion_sugerida": null
        },
        {
          "id": 164,
          "nombre": "AGROACUÑA",
          "direccion": "SAN CIPRIAN, NEVES (AS), ESPAÑA",
          "lat": 42.107011,
          "lng": -8.386095,
          "desvio_km": 9.52,
          "distancia_delegacion_km": 45.36,
          "vecino_cercano_km": 6.38,
          "clasificacion": "REVISAR",
          "reasignacion_sugerida": null
        },
        {
          "id": 4810,
          "nombre": "GUILLERMO ALVAREZ",
          "direccion": "Aldea Valiño, 18, 32235 Pontedeva, Province of Ourense",
          "lat": 42.175121,
          "lng": -8.147911,
          "desvio_km": 5.55,
          "distancia_delegacion_km": 67.92,
          "vecino_cercano_km": 5.45,
          "clasificacion": "REVISAR",
          "reasignacion_sugerida": null
        },
        {
          "id": 1969,
          "nombre": "NUTRIRURAL",
          "direccion": "XUNQUEIRAS- COUTO, A CAÑIZA, ESPAÑA",
          "lat": 42.176761,
          "lng": -8.24232,
          "desvio_km": 5.2,
          "distancia_delegacion_km": 64.9,
          "vecino_cercano_km": 4.52,
          "clasificacion": "REVISAR",
          "reasignacion_sugerida": null
        },
        {
          "id": 4813,
          "nombre": "GONZALEZ Y GONZALEz",
          "direccion": "Rúa Entrecines, 2, Bajo, 36440 As Neves, Pontevedra",
          "lat": 42.089056,
          "lng": -8.419051,
          "desvio_km": 5.04,
          "distancia_delegacion_km": 39.73,
          "vecino_cercano_km": 5.69,
          "clasificacion": "REVISAR",
          "reasignacion_sugerida": null
        },
        {
          "id": 133,
          "nombre": "AGRO MIGUEL ESTEVEZ",
          "direccion": "PLAZA DE MERCADO 1º BAJO, ARBO, ESPAÑA",
          "lat": 42.111184,
          "lng": -8.312457,
          "desvio_km": 0.2,
          "distancia_delegacion_km": 51.24,
          "vecino_cercano_km": 0.32,
          "clasificacion": "RENTABLE",
          "reasignacion_sugerida": null
        },
        {
          "id": 4812,
          "nombre": "AGROPARADANTA",
          "direccion": "Rúa Vilanova, 9, 36888 A Cañiza, Pontevedra",
          "lat": 42.212995,
          "lng": -8.272975,
          "desvio_km": 0.18,
          "distancia_delegacion_km": 60.52,
          "vecino_cercano_km": 0.28,
          "clasificacion": "RENTABLE",
          "reasignacion_sugerida": null
        },
        {
          "id": 4811,
          "nombre": "MR BARBARO",
          "direccion": "Rúa Antonio Facorro, 12, 14, 36880 A Cañiza, Pontevedra",
          "lat": 42.21228,
          "lng": -8.275094,
          "desvio_km": 0.15,
          "distancia_delegacion_km": 60.7,
          "vecino_cercano_km": 0.08,
          "clasificacion": "RENTABLE",
          "reasignacion_sugerida": null
        },
        {
          "id": 112,
          "nombre": "AGRO CONDADO",
          "direccion": "ANTONIO TOBAR, 38, ARBO, ESPAÑA",
          "lat": 42.112291,
          "lng": -8.310334,
          "desvio_km": 0.06,
          "distancia_delegacion_km": 51.04,
          "vecino_cercano_km": 0.26,
          "clasificacion": "RENTABLE",
          "reasignacion_sugerida": null
        },
        {
          "id": 149,
          "nombre": "AGRO RIBADAVIA",
          "direccion": "CTRA. DE FRANCELOS, 20, RIBADAVIA, ESPAÑA",
          "lat": 42.283605,
          "lng": -8.147283,
          "desvio_km": 0.06,
          "distancia_delegacion_km": 75.78,
          "vecino_cercano_km": 1.2,
          "clasificacion": "RENTABLE",
          "reasignacion_sugerida": null
        },
        {
          "id": 1139,
          "nombre": "FLORISTERIA MORA",
          "direccion": "FERMIN BOUZA BREY, 53, CORTEGADA, ESPAÑA",
          "lat": 42.207648,
          "lng": -8.171168,
          "desvio_km": 0.05,
          "distancia_delegacion_km": 74.33,
          "vecino_cercano_km": 0.14,
          "clasificacion": "RENTABLE",
          "reasignacion_sugerida": null
        },
        {
          "id": 65,
          "nombre": "AGRICOLA LITO",
          "direccion": "C/MIGUELDAVILA, 27, ARBO, ESPAÑA",
          "lat": 42.111969,
          "lng": -8.313549,
          "desvio_km": 0.0,
          "distancia_delegacion_km": 51.19,
          "vecino_cercano_km": 0.35,
          "clasificacion": "RENTABLE",
          "reasignacion_sugerida": null
        },
        {
          "id": 70,
          "nombre": "AGRICOLA MR.BARBARO",
          "direccion": "CTRA.ARBO, 14, CAÑIZA, (A), ESPAÑA",
          "lat": 42.212764,
          "lng": -8.275746,
          "desvio_km": 0.0,
          "distancia_delegacion_km": 60.8,
          "vecino_cercano_km": 0.08,
          "clasificacion": "RENTABLE",
          "reasignacion_sugerida": null
        },
        {
          "id": 114,
          "nombre": "AGRO CORTEGADA",
          "direccion": "C/.ALFEREZ RIVERA VISO Nº8 BAIXO, CORTEGADA, ESPAÑA",
          "lat": 42.206892,
          "lng": -8.172068,
          "desvio_km": 0.0,
          "distancia_delegacion_km": 73.82,
          "vecino_cercano_km": 0.35,
          "clasificacion": "RENTABLE",
          "reasignacion_sugerida": null
        },
        {
          "id": 143,
          "nombre": "AGRO PATATEIRO",
          "direccion": "RUA MUÑOZ CALERO, 30, RIBADAVIA, ESPAÑA",
          "lat": 42.298503,
          "lng": -8.137068,
          "desvio_km": 0.0,
          "distancia_delegacion_km": 78.19,
          "vecino_cercano_km": 0.83,
          "clasificacion": "RENTABLE",
          "reasignacion_sugerida": null
        },
        {
          "id": 4809,
          "nombre": "FLORISTERIA MORA",
          "direccion": "Rúa Fermín Bouza Brey, 32200 Cortegada, Province of Ourense",
          "lat": 42.207035,
          "lng": -8.169662,
          "desvio_km": 0.0,
          "distancia_delegacion_km": 74.29,
          "vecino_cercano_km": 0.26,
          "clasificacion": "RENTABLE",
          "reasignacion_sugerida": null
        },
        {
          "id": 4808,
          "nombre": "MARIA CANDIDA",
          "direccion": "Estrada a Filgueira, 37, 32710 Francelos, Ourense",
          "lat": 42.277301,
          "lng": -8.158272,
          "desvio_km": 0.0,
          "distancia_delegacion_km": 77.38,
          "vecino_cercano_km": 1.2,
          "clasificacion": "RENTABLE",
          "reasignacion_sugerida": null
        },
        {
          "id": 4807,
          "nombre": "MEDEN RIBADAVIA",
          "direccion": "N-120, 32418 Ribadavia, Province of Ourense",
          "lat": 42.304135,
          "lng": -8.131616,
          "desvio_km": 0.0,
          "distancia_delegacion_km": 78.19,
          "vecino_cercano_km": 1.05,
          "clasificacion": "RENTABLE",
          "reasignacion_sugerida": null
        },
        {
          "id": 2051,
          "nombre": "PELLETS GALICIA",
          "direccion": "A MIÑOTEIRA Nº3 BAJOVALEIXE, CAÑIZA, (A), ESPAÑA",
          "lat": 42.169725,
          "lng": -8.27395,
          "desvio_km": 0.0,
          "distancia_delegacion_km": 65.46,
          "vecino_cercano_km": 4.52,
          "clasificacion": "RENTABLE",
          "reasignacion_sugerida": null
        }
      ]
    }
  ],
  "reasignaciones": [
    {
      "cliente_id": 4815,
      "nombre": "AGRO NERGA",
      "ruta_actual": "Comarca A",
      "desvio_actual": 71.09,
      "ruta_sugerida": "Pontevedra 1",
      "desvio_nuevo": 9.03,
      "ahorro_km": 62.06
    },
    {
      "cliente_id": 1868,
      "nombre": "MERKAPIENSO AGROTENDA",
      "ruta_actual": "Pontevedra 3",
      "desvio_actual": 24.61,
      "ruta_sugerida": "Pontevedra 2",
      "desvio_nuevo": 2.77,
      "ahorro_km": 21.84
    },
    {
      "cliente_id": 1094,
      "nombre": "FLORISTERIA LUCES",
      "ruta_actual": "Orense A",
      "desvio_actual": 15.33,
      "ruta_sugerida": "Orense B",
      "desvio_nuevo": 3.97,
      "ahorro_km": 11.36
    },
    {
      "cliente_id": 4784,
      "nombre": "EL BACHIR NIASSE 1",
      "ruta_actual": "Orense A",
      "desvio_actual": 13.82,
      "ruta_sugerida": "Orense B",
      "desvio_nuevo": 3.27,
      "ahorro_km": 10.55
    },
    {
      "cliente_id": 2710,
      "nombre": "EL BACHIR NIASSE 2",
      "ruta_actual": "Orense A",
      "desvio_actual": 13.05,
      "ruta_sugerida": "Orense B",
      "desvio_nuevo": 3.42,
      "ahorro_km": 9.63
    },
    {
      "cliente_id": 142,
      "nombre": "AGRO PARAÑOS",
      "ruta_actual": "Comarca B",
      "desvio_actual": 18.89,
      "ruta_sugerida": "Orense C",
      "desvio_nuevo": 12.58,
      "ahorro_km": 6.31
    },
    {
      "cliente_id": 96,
      "nombre": "AGRO ARDAN",
      "ruta_actual": "Pontevedra 1",
      "desvio_actual": 6.24,
      "ruta_sugerida": "Pontevedra 2",
      "desvio_nuevo": 0.0,
      "ahorro_km": 6.24
    },
    {
      "cliente_id": 1321,
      "nombre": "GARDEN PARADELO",
      "ruta_actual": "Orense B",
      "desvio_actual": 6.82,
      "ruta_sugerida": "Orense A",
      "desvio_nuevo": 1.06,
      "ahorro_km": 5.76
    },
    {
      "cliente_id": 4030,
      "nombre": "FERRETERIA PAREDES",
      "ruta_actual": "Pontevedra 1",
      "desvio_actual": 7.61,
      "ruta_sugerida": "Pontevedra 2",
      "desvio_nuevo": 4.96,
      "ahorro_km": 2.65
    },
    {
      "cliente_id": 176,
      "nombre": "AGROCHAN",
      "ruta_actual": "Pontevedra 2",
      "desvio_actual": 24.77,
      "ruta_sugerida": "Pontevedra 3",
      "desvio_nuevo": 22.88,
      "ahorro_km": 1.89
    },
    {
      "cliente_id": 69,
      "nombre": "AGRICOLA MOURENTE",
      "ruta_actual": "Pontevedra 2",
      "desvio_actual": 5.16,
      "ruta_sugerida": "Pontevedra 3",
      "desvio_nuevo": 3.48,
      "ahorro_km": 1.68
    },
    {
      "cliente_id": 90,
      "nombre": "AGRO A GRANXA NESPEREIRA",
      "ruta_actual": "Pontevedra 1",
      "desvio_actual": 16.65,
      "ruta_sugerida": "Comarca B",
      "desvio_nuevo": 15.08,
      "ahorro_km": 1.57
    },
    {
      "cliente_id": 697,
      "nombre": "COMERCIAL SIVAR",
      "ruta_actual": "Pontevedra 2",
      "desvio_actual": 5.19,
      "ruta_sugerida": "Pontevedra 3",
      "desvio_nuevo": 3.76,
      "ahorro_km": 1.43
    },
    {
      "cliente_id": 123,
      "nombre": "AGRO FERRALVE",
      "ruta_actual": "Pontevedra 1",
      "desvio_actual": 12.21,
      "ruta_sugerida": "Comarca A",
      "desvio_nuevo": 11.65,
      "ahorro_km": 0.56
    },
    {
      "cliente_id": 239,
      "nombre": "AGROYFORES",
      "ruta_actual": "Pontevedra 3",
      "desvio_actual": 7.26,
      "ruta_sugerida": "Pontevedra 2",
      "desvio_nuevo": 7.1,
      "ahorro_km": 0.16
    }
  ]
}